URL;Title;Latitude;Longitude;Hote;User ID
https://www.airbnb.fr/rooms/36787133;Couchully - Appartements  louer  cully, Auvergne-Rh么ne-Alpes, France - Airbnb;45.79277;4.78441;Valentin;RGVtYW5kVXNlcjo1MDMwOTQ0Nw==
https://www.airbnb.fr/rooms/1007691117144198455;Terrelly - Appartements  louer  cully, Auvergne-Rh么ne-Alpes, France - Airbnb;45.7907;4.7818;Valentin;RGVtYW5kVXNlcjo1MDMwOTQ0Nw==
https://www.airbnb.fr/rooms/39242822;3 chambres dans grande maison - Maisons  louer  Villefontaine, Auvergne-Rh么ne-Alpes, France - Airbnb;45.61064;5.15233;Gisele;RGVtYW5kVXNlcjo1NjczODk1Nw==
https://www.airbnb.fr/rooms/53928259;Tassin la Demi-Lune, appartement cosy, lumineux. - Appartements  louer  Tassin-la-Demi-Lune, Auvergne-Rh么ne-Alpes, France - Airbnb;45.76354;4.78482;Francoise;RGVtYW5kVXNlcjo0MzY4NjMyNDc=
https://www.airbnb.fr/rooms/939541935402876604;jolie chambre - Appartements  louer  Rillieux-la-Pape, Auvergne-Rh么ne-Alpes, France - Airbnb;45.8242;4.9222;Zouhaier;RGVtYW5kVXNlcjoxMjMyODMyNjc=
https://www.airbnb.fr/rooms/49583701;Chambre lumineuse proche centre-ville Tr茅voux. - Appartements en r茅sidence  louer  Tr茅voux, Auvergne-Rh么ne-Alpes, France - Airbnb;45.93623;4.78641;Patrice;RGVtYW5kVXNlcjoxODQyMzc4ODQ=
https://www.airbnb.fr/rooms/38427997;Chambre avec acc猫s ind茅pendant  la maison - Maisons  louer  Vaulx-en-Velin, Auvergne-Rh么ne-Alpes, France - Airbnb;45.78897;4.90882;Eddy;RGVtYW5kVXNlcjoxNTA1NDQ4MzM=
https://www.airbnb.fr/rooms/6203396;Chambre meubl茅e - Appartements en r茅sidence  louer  Villeurbanne, Rh么ne-Alpes, France - Airbnb;45.76468;4.91126;Ang茅lique;RGVtYW5kVXNlcjoyODM4MzUxMQ==
https://www.airbnb.fr/rooms/20177184;Au plaisir de vous accueillir - Appartements en r茅sidence  louer  Lyon, Auvergne-Rh么ne-Alpes, France - Airbnb;45.76473;4.79152;Chlo茅;RGVtYW5kVXNlcjoxMDkzMzc3NDM=
https://www.airbnb.fr/rooms/13622711;Belle chambre dans un appartement - Appartements  louer  Tassin-la-Demi-Lune, Auvergne Rh么ne-Alpes, France - Airbnb;45.76772;4.78818;Cassilde;RGVtYW5kVXNlcjo2ODg1NjE4Ng==
https://www.airbnb.fr/rooms/982337427531413616;Canap茅 - Nuit chez lhabitant - Appartements  louer  Lyon, Auvergne-Rh么ne-Alpes, France - Airbnb;45.73916;4.86635;Antoine Et Donovan;RGVtYW5kVXNlcjozMzk5OTMzOQ==
https://www.airbnb.fr/rooms/33655184;Grande chambre Ecully - Appartements  louer  cully, Auvergne-Rh么ne-Alpes, France - Airbnb;45.79093;4.783;Valentin;RGVtYW5kVXNlcjo1MDMwOTQ0Nw==
https://www.airbnb.fr/rooms/32416891;Chambre dans appartement/ 10 min de la doua/ INSA - Appartements en r茅sidence  louer  Villeurbanne, Auvergne-Rh么ne-Alpes, France - Airbnb;45.77868;4.88048;Yanis;RGVtYW5kVXNlcjo1NTI4MjEwMA==
https://www.airbnb.fr/rooms/1084637881662045113;Bonjour, Je vous dis  bient么t - Appartements en r茅sidence  louer  Tassin-la-Demi-Lune, Auvergne-Rh么ne-Alpes, France - Airbnb;45.7627;4.7489;Laurent;RGVtYW5kVXNlcjo1Mjk3MTA5ODY=
https://www.airbnb.fr/rooms/13595823;charmante chambre dans un appartement - Appartements  louer  Tassin-la-Demi-Lune, Auvergne Rh么ne-Alpes, France - Airbnb;45.76753;4.79003;Cassilde;RGVtYW5kVXNlcjo2ODg1NjE4Ng==
https://www.airbnb.fr/rooms/6183072;Chambre confortable, pr猫s du centre ville - Appartements  louer  Lyon, Rh么ne-Alpes, France - Airbnb;45.75474;4.81129;Laetitia;RGVtYW5kVXNlcjoxMDE1NzYzMQ==
https://www.airbnb.fr/rooms/19174166;Petit nid douillet - Appartements  louer  Lyon, Auvergne-Rh么ne-Alpes, France - Airbnb;45.74818;4.85737;Anne-Lisette;RGVtYW5kVXNlcjo5NjIyNTY1Mw==
https://www.airbnb.fr/rooms/21338879;chambre pr猫s de la doua - Appartements  louer  Villeurbanne, Auvergne-Rh么ne-Alpes, France - Airbnb;45.78264;4.88137;Elisabeth;RGVtYW5kVXNlcjo2Mzc2MDE1OQ==
https://www.airbnb.fr/rooms/601942512907263160;Superbe chambre au calme  Venissieux - Appartements  louer  V茅nissieux, Auvergne-Rh么ne-Alpes, France - Airbnb;45.69308;4.87626;Diallo;RGVtYW5kVXNlcjoyNzcwOTM3MTY=
https://www.airbnb.fr/rooms/38087606;Chambre d h么te a l isle d abeau - Maisons de ville  louer  L'Isle-d'Abeau, Auvergne-Rh么ne-Alpes, France - Airbnb;45.62061;5.21087;V茅ronique;RGVtYW5kVXNlcjoyMTMwMTk5NDQ=
https://www.airbnb.fr/rooms/5830569;Chambre d'h么tes - Maisons  louer  Valencin, Rh么ne-Alpes, France - Airbnb;45.61122;5.02659;Allison;RGVtYW5kVXNlcjozMDI2MzQwOQ==
https://www.airbnb.fr/rooms/824505241420536722;chambre ind茅pendante au calme.dans un jardin - Appartements  louer  Villeurbanne, Auvergne-Rh么ne-Alpes, France - Airbnb;45.77749;4.8928;Berenice;RGVtYW5kVXNlcjozNzA0NjU2MDk=
https://www.airbnb.fr/rooms/917383766635635241;Chambre belle 茅poque vue jardin +Parking S茅curis茅 - Appartements  louer  Vienne, Auvergne-Rh么ne-Alpes, France - Airbnb;45.53875930448065;4.866455096174732;C茅cile Et Clara;RGVtYW5kVXNlcjo1MjA4NzEwOTA=
https://www.airbnb.fr/rooms/30084596;Clic clac dans salon - Appartements  louer  Lyon, Auvergne-Rh么ne-Alpes, France - Airbnb;45.73622;4.85518;R茅gine;RGVtYW5kVXNlcjo0OTExMjAz
https://www.airbnb.fr/rooms/24585170;Charmante chambre 20 min M茅tro A Centre Ville - Appartements en r茅sidence  louer  Villeurbanne, Auvergne-Rh么ne-Alpes, France - Airbnb;45.7639;4.9072;Aymen;RGVtYW5kVXNlcjo5MTM1MDk4OQ==
https://www.airbnb.fr/rooms/825323276332107767;Chambre individuelle  Lyon 8e - Appartements en r茅sidence  louer  Lyon, Auvergne-Rh么ne-Alpes, France - Airbnb;45.72727082134398;4.878946174474813;Marie;RGVtYW5kVXNlcjoyMzU5NDMzNDk=
https://www.airbnb.fr/rooms/980939342305651582;Chambre uniquement pour femmes - Appartements  louer  Villeurbanne, Auvergne-Rh么ne-Alpes, France - Airbnb;45.77325;4.86693;Rama;RGVtYW5kVXNlcjo1MzcyMjg3NjY=
https://www.airbnb.fr/rooms/52199777;Un appart sympa, lumineux et accessible  Oullins. - Appartements  louer  Oullins, Auvergne-Rh么ne-Alpes, France - Airbnb;45.71869;4.81791;Sahar;RGVtYW5kVXNlcjo0MjI1NTE2NDk=
https://www.airbnb.fr/rooms/13010045;Chambre simple, loft croix rousse - Lofts  louer  Lyon, Auvergne Rh么ne-Alpes, France - Airbnb;45.77616;4.83045;Yohann;RGVtYW5kVXNlcjozMDg0MDkwMA==
https://www.airbnb.fr/rooms/48839175;"Chambre cosy.avec pti d茅jeuner
centre st priest. - Appartements  louer  Saint-Priest, Auvergne-Rh么ne-Alpes, France - Airbnb";45.69311;4.93816;Corinne;RGVtYW5kVXNlcjoyMTgwNzE4Nzc=
https://www.airbnb.fr/rooms/1045443602816531949;Chambre priv茅e dans un grand T4 - Appartements  louer  V茅nissieux, Auvergne-Rh么ne-Alpes, France - Airbnb;45.7036279482594;4.876482886631609;Lasri;RGVtYW5kVXNlcjoyMzIwNDY3NDA=
https://www.airbnb.fr/rooms/1108708829977120840;Chambre chez lhabitant - Appartements  louer  Saint-Priest, Auvergne-Rh么ne-Alpes, France - Airbnb;45.69024314264226;4.9434306169036235;Sylvie;RGVtYW5kVXNlcjoyMzgwNjQ1NzU=
https://www.airbnb.fr/rooms/50687502;Tassin la demi-lune agr茅able Chambre 2 couchages - Appartements  louer  Tassin-la-Demi-Lune, Auvergne-Rh么ne-Alpes, France - Airbnb;45.76215;4.77032;Julien;RGVtYW5kVXNlcjo0MDk2MDk1NjQ=
https://www.airbnb.fr/rooms/945710928045439788;Chambre Coquelicot - Maisons  louer  Fleurieux-sur-l'Arbresle, Auvergne-Rh么ne-Alpes, France - Airbnb;45.8382;4.6554;Magali;RGVtYW5kVXNlcjo1Mjg0NzQ4ODU=
https://www.airbnb.fr/rooms/43932787;Nid douillet  ultra s茅curis茅 - Appartements en r茅sidence  louer  Lyon, Auvergne-Rh么ne-Alpes, France - Airbnb;45.72567;4.8783;Paul Henri;RGVtYW5kVXNlcjozNTE3MjAyNTQ=
https://www.airbnb.fr/rooms/31948711;chambre avec un grand bureau - Appartements en r茅sidence  louer  Lyon, Auvergne-Rh么ne-Alpes, France - Airbnb;45.73205;4.88452;Asny;RGVtYW5kVXNlcjozNzA3ODU5NQ==
https://www.airbnb.fr/rooms/15886038;VILLEURBANNE LA DOUA Universit茅 - Appartements  louer  Villeurbanne, Auvergne-Rh么ne-Alpes, France - Airbnb;45.77723;4.88155;Aline;RGVtYW5kVXNlcjo3NjE5MTYxOA==
https://www.airbnb.fr/rooms/31256135;Chambre single priv茅e calme,   centre ville - Appartements  louer  Saint-Genis-Laval, Auvergne-Rh么ne-Alpes, France - Airbnb;45.69606;4.79319;Bernard;RGVtYW5kVXNlcjoyMjYyMTAyNQ==
https://www.airbnb.fr/rooms/54087269;Chambre priv茅e dans chouette appartement - Appartements en r茅sidence  louer  Saint-Priest, Auvergne-Rh么ne-Alpes, France - Airbnb;45.70014;4.93121;Morgane;RGVtYW5kVXNlcjo0MzgzODczNDk=
https://www.airbnb.fr/rooms/12816620;Chbre sdb priv茅e ds maison proche villefontaine - Maisons  louer  Roche, Auvergne Rh么ne-Alpes, France - Airbnb;45.5901;5.1616;Maryline;RGVtYW5kVXNlcjo2OTkwOTYwMA==
https://www.airbnb.fr/rooms/29837962;Veloutiers Chambre Antartica - Maisons  louer  Soucieu-en-Jarrest, Auvergne-Rh么ne-Alpes, France - Airbnb;45.67415;4.69921;Marie Noel;RGVtYW5kVXNlcjoyMjA5NDgwNA==
https://www.airbnb.fr/rooms/15848357;Chambre n掳1  chez particulier - Maisons  louer  Saint-Maurice-de-Gourdans, Auvergne-Rh么ne-Alpes, France - Airbnb;45.82777;5.19455;Doroth茅e;RGVtYW5kVXNlcjoxMDI2NzMxNTk=
https://www.airbnb.fr/rooms/23539714;Au 130 ! Vous & moi - Appartements  louer  Lyon, Auvergne-Rh么ne-Alpes, France - Airbnb;45.7362;4.8793;Benjamin;RGVtYW5kVXNlcjo0MzM0ODg3MA==
https://www.airbnb.fr/rooms/1010907774302751061;studio au calme avec jardin - Appartements  louer  Saint-Priest, Auvergne-Rh么ne-Alpes, France - Airbnb;45.6852;4.9332;Florence Et Marcel;RGVtYW5kVXNlcjo2MzM2Mjc0OA==
https://www.airbnb.fr/rooms/50226470;Tr茅voux :  Dombes, Beaujolais, Lyon  30 km - Appartements  louer  Tr茅voux, Auvergne-Rh么ne-Alpes, France - Airbnb;45.93623;4.78566;Patrice;RGVtYW5kVXNlcjoxODQyMzc4ODQ=
https://www.airbnb.fr/rooms/1000732814887510969;Chambre uniquement pour femme - Appartements  louer  Villeurbanne, Auvergne-Rh么ne-Alpes, France - Airbnb;45.77304349540422;4.866933322173017;Rama;RGVtYW5kVXNlcjo1MzcyMjg3NjY=
https://www.airbnb.fr/rooms/1092884199194221085;Chambre pour  femme - Appartements  louer  Lyon, Auvergne-Rh么ne-Alpes, France - Airbnb;45.745820504353624;4.850551776025006;Sabah;RGVtYW5kVXNlcjozMDUzMDY2MTA=
https://www.airbnb.fr/rooms/38144286;chambre priv茅e 1 chez particulier/CNPE Bugey - Maisons  louer  Saint-Maurice-de-Gourdans, Auvergne-Rh么ne-Alpes, France - Airbnb;45.8144;5.1525;Chantal;RGVtYW5kVXNlcjoxNDY2NjIwNg==
https://www.airbnb.fr/rooms/45253401;CHAMBRE PRIVE dans VILLA   20 minutes de Lyon - Villas  louer  Charly, Auvergne-Rh么ne-Alpes, France - Airbnb;45.64428;4.79159;Marilyn;RGVtYW5kVXNlcjozNjQ5OTE1MjM=
https://www.airbnb.fr/rooms/42013916;Beaujolais, chambre privative maison contemporaine - Maisons  louer  Porte des Pierres Dor茅es, Auvergne-Rh么ne-Alpes, France - Airbnb;45.96407;4.66128;Patrick;RGVtYW5kVXNlcjozMzI4OTE5MTQ=
https://www.airbnb.fr/rooms/30456932;chambre   pr猫s du centre  Villefranche sur Sa么ne - Maisons  louer  Gleize, Auvergne-Rh么ne-Alpes, France - Airbnb;45.989;4.7072;Marie -Christine;RGVtYW5kVXNlcjo1MDAwNzg5Mw==
https://www.airbnb.fr/rooms/52734747;chambre neuville centre - Appartements  louer  Neuville-sur-Sa么ne, Auvergne-Rh么ne-Alpes, France - Airbnb;45.87525;4.84179;Camille;RGVtYW5kVXNlcjoyOTgwNzcyOTI=
https://www.airbnb.fr/rooms/21958300;Chambres de ferme r茅nov茅e dans lieu calme du Pilat - Maisons  louer  Sainte-Croix-en-Jarez, Auvergne-Rh么ne-Alpes, France - Airbnb;45.484;4.6598;Isabelle;RGVtYW5kVXNlcjoxNjAzMDEyMDE=
https://www.airbnb.fr/rooms/625252261632191781;Maison Eco Responsable, calme et 茅nergique. - Maisons  louer  L'Isle-d'Abeau, Auvergne-Rh么ne-Alpes, France - Airbnb;45.60031;5.22447;Fabrice;RGVtYW5kVXNlcjoxMTY2ODQ2NDA=
https://www.airbnb.fr/rooms/50737315;festival jazz nuit, semaine, chambre colocation - Appartements  louer  Vienne, Auvergne-Rh么ne-Alpes, France - Airbnb;45.52298;4.87382;Veronique;RGVtYW5kVXNlcjoxNDg1ODI0OA==
https://www.airbnb.fr/rooms/1105515118516035926;Chambre  louer - Maisons  louer  Pont-de-Ch茅ruy, Auvergne-Rh么ne-Alpes, France - Airbnb;45.75413815963191;5.176566060542871;Mourad;RGVtYW5kVXNlcjoxMzg5NDY3NDU=
https://www.airbnb.fr/rooms/16188312;Chambre n掳3 chez particulier - Maisons  louer  Saint-Maurice-de-Gourdans, Auvergne-Rh么ne-Alpes, France - Airbnb;45.82428;5.19463;Doroth茅e;RGVtYW5kVXNlcjoxMDI2NzMxNTk=
https://www.airbnb.fr/rooms/761631338396267717;Chambre priv茅e  letage avec terrasse - Maisons  louer  Ternay, Auvergne-Rh么ne-Alpes, France - Airbnb;45.6061;4.8133;Alicia;RGVtYW5kVXNlcjo3MzI4NDkxNw==
https://www.airbnb.fr/rooms/570285805410957027;Chambre dans un appartement calme avec bureau - Appartements  louer  Villeurbanne, Auvergne-Rh么ne-Alpes, France - Airbnb;45.76226;4.8819;Arnaud;RGVtYW5kVXNlcjoxNjI0MTU5ODE=
https://www.airbnb.fr/rooms/1054219680428684396;Un canap茅 cliclac - Appartements  louer  Lyon, Auvergne-Rh么ne-Alpes, France - Airbnb;45.73412693792786;4.836870456446578;Mustafa;RGVtYW5kVXNlcjoxNzI1MzA5OA==
https://www.airbnb.fr/rooms/8083667;Chambre priv茅e /Saint Exup茅ry /Lyon - Maisons  louer  Villette-d'Anthon, Rh么ne-Alpes, France - Airbnb;45.79472;5.12065;Christian;RGVtYW5kVXNlcjo0MjYxMzg5NA==
https://www.airbnb.fr/rooms/27388460;Chambres dans ferme r茅nov茅e dans  massif du Pilat - Maisons  louer  Sainte-Croix-en-Jarez, Auvergne-Rh么ne-Alpes, France - Airbnb;45.48547;4.65766;Isabelle;RGVtYW5kVXNlcjoxNjAzMDEyMDE=
https://www.airbnb.fr/rooms/42054180;chambre meubl茅e proche de lyon - Maisons  louer  Solaize, Auvergne-Rh么ne-Alpes, France - Airbnb;45.64681;4.83781;Francoise;RGVtYW5kVXNlcjozMTY2ODM4NDU=
https://www.airbnb.fr/rooms/27521888;chambre  2 LITS - Maisons  louer  Saint-Marcel-Bel-Accueil, Auvergne-Rh么ne-Alpes, France - Airbnb;45.63845;5.24062;Denis;RGVtYW5kVXNlcjoxOTg0NDAzOTc=
https://www.airbnb.fr/rooms/16695674;Chambre  n掳2 chez particulier - Maisons  louer  Saint-Maurice-de-Gourdans, Auvergne-Rh么ne-Alpes, France - Airbnb;45.82522;5.19492;Doroth茅e;RGVtYW5kVXNlcjoxMDI2NzMxNTk=
https://www.airbnb.fr/rooms/42054778;chambre meubl茅e  louer proche de lyon - Maisons  louer  Solaize, Auvergne-Rh么ne-Alpes, France - Airbnb;45.64491;4.83805;Francoise;RGVtYW5kVXNlcjozMTY2ODM4NDU=
https://www.airbnb.fr/rooms/29648764;Veloutiers Chambre Musique - Maisons  louer  Soucieu-en-Jarrest, Auvergne-Rh么ne-Alpes, France - Airbnb;45.6742;4.69896;Marie Noel;RGVtYW5kVXNlcjoyMjA5NDgwNA==
https://www.airbnb.fr/rooms/34246293;Chambre priv茅e carr茅 de soie Lyon - Maisons  louer  Vaulx-en-Velin, Auvergne-Rh么ne-Alpes, France - Airbnb;45.75262;4.92529;Tony;RGVtYW5kVXNlcjo3NjE0OTU3NQ==
https://www.airbnb.fr/rooms/29452805;chambre chez h么te. - Maisons  louer  Tignieu-Jameyzieu, Auvergne-Rh么ne-Alpes, France - Airbnb;45.75466;5.18822;Max;RGVtYW5kVXNlcjo1MDA1NTgwNw==
https://www.airbnb.fr/rooms/39885535;Lit au sol dans appart - Appartements  louer  Lyon, Auvergne-Rh么ne-Alpes, France - Airbnb;45.74984;4.88705;Romain;RGVtYW5kVXNlcjoxODA5MDA2Nzk=
https://www.airbnb.fr/rooms/51840124;Gare de vaise - Lyon (Parking gratuit) - Appartements  louer  Lyon, Auvergne-Rh么ne-Alpes, France - Airbnb;45.7878;4.8029;Nabil;RGVtYW5kVXNlcjo3NjcxMjI4MA==
https://www.airbnb.fr/rooms/6764885;Petit Studio Lyon-Villeurbanne WIFI - Appartements  louer  Villeurbanne, Rh么ne-Alpes, France - Airbnb;45.76304;4.89497;Alban;RGVtYW5kVXNlcjoyMTQ4Mjk1Nw==
https://www.airbnb.fr/rooms/44151091;une chambre en ville, prox centre, m茅tro ligne D - Appartements  louer  Lyon, Auvergne-Rh么ne-Alpes, France - Airbnb;45.7735;4.8004;Anne;RGVtYW5kVXNlcjozNTUwODQ1OTM=
https://www.airbnb.fr/rooms/812887558569620547;Chambre 1 dans appartement r茅nov茅 - Appartements  louer  Vaulx-en-Velin, Auvergne-Rh么ne-Alpes, France - Airbnb;45.78412;4.92455;David;RGVtYW5kVXNlcjoxNTc1Mzk5OTQ=
https://www.airbnb.fr/rooms/3426528;Chambre Calme dans Grand Appartement - Appartements  louer  Villeurbanne, Rh么ne-Alpes, France - Airbnb;45.7612;4.8798;Patrick;RGVtYW5kVXNlcjoxMDc3NDU2NA==
https://www.airbnb.fr/rooms/27768983;Chambre h么te dans petit 茅crin de verdure sur jardi - Appartements  louer  Tassin-la-Demi-Lune, Auvergne-Rh么ne-Alpes, France - Airbnb;45.75721;4.77102;D茅borah;RGVtYW5kVXNlcjoxNTgwMTEwNDU=
https://www.airbnb.fr/rooms/45677467;Chambre Double de La B芒tisse De Saint-Chamond - Appartements  louer  Saint-Chamond, Auvergne-Rh么ne-Alpes, France - Airbnb;45.47798;4.52344;Virginie;RGVtYW5kVXNlcjozNjUxMTQzMjc=
https://www.airbnb.fr/rooms/37103568;Chambre moderne dans maison centre ville - Maisons  louer  Lyon, Auvergne-Rh么ne-Alpes, France - Airbnb;45.7552;4.86882;Jean-Michel;RGVtYW5kVXNlcjozODg0NTgzNQ==
https://www.airbnb.fr/rooms/45204168;Chambre Priv茅e  de  La B芒tisse De Saint-Chamond - Appartements  louer  Saint-Chamond, Auvergne-Rh么ne-Alpes, France - Airbnb;45.47669;4.52286;Virginie;RGVtYW5kVXNlcjozNjUxMTQzMjc=
https://www.airbnb.fr/rooms/924702114418375358;La Belle Vie / Chambre 1 - Appartements  louer  Lyon, Auvergne-Rh么ne-Alpes, France - Airbnb;45.7739;4.807;L茅na;RGVtYW5kVXNlcjoxMzQ1NjU0NTQ=
https://www.airbnb.fr/rooms/45648755;Chambre vue montagne: la B芒tisse De Saint-Chamond - Appartements  louer  Saint-Chamond, Auvergne-Rh么ne-Alpes, France - Airbnb;45.47825;4.5248;Virginie;RGVtYW5kVXNlcjozNjUxMTQzMjc=
https://www.airbnb.fr/rooms/48348416;Belle chambre privative  avec un grand lit - Appartements  louer  Saint-Priest, Auvergne-Rh么ne-Alpes, France - Airbnb;45.69316;4.93422;Sandrine;RGVtYW5kVXNlcjozODI3MTQ3Njk=
https://www.airbnb.fr/rooms/1082482964056779834;Chambre avec Kitchennette et sa terrasse - Appartements  louer  Yzeron, Auvergne-Rh么ne-Alpes, France - Airbnb;45.71335153763398;4.592959422052997;Julie Jeremy;RGVtYW5kVXNlcjoyNTgxNDM1
https://www.airbnb.fr/rooms/46121021;达Studio Le Guesde A Hypercentre Netflix - Appartements  louer  Rive-de-Gier, Auvergne-Rh么ne-Alpes, France - Airbnb;45.52914;4.6146;Yasmine;RGVtYW5kVXNlcjoyNjk0MTU4OA==
https://www.airbnb.fr/rooms/47408776;Chambre simple  priv茅e  Saint priest - Appartements  louer  Saint-Priest, Auvergne-Rh么ne-Alpes, France - Airbnb;45.69121;4.9354;Sandrine;RGVtYW5kVXNlcjozODI3MTQ3Njk=
https://www.airbnb.fr/rooms/52529586;Chambre+(SDB & WC privatifs)  50 m h么pitaux Est - Appartements en r茅sidence  louer  Bron, Auvergne-Rh么ne-Alpes, France - Airbnb;45.75003;4.90203;Dal;RGVtYW5kVXNlcjo2ODc4NjMwNw==
https://www.airbnb.fr/rooms/44934838;Chambre dans appartement - Appartements en r茅sidence  louer  Tassin-la-Demi-Lune, Auvergne-Rh么ne-Alpes, France - Airbnb;45.75248;4.77384;Michelle-Karine;RGVtYW5kVXNlcjozNzU2MTM1NQ==
https://www.airbnb.fr/rooms/8416419;Lyon3 Montchat jolie chambre 1 pers - Appartements  louer  Lyon, Rh么ne-Alpes, France - Airbnb;45.74956;4.88497;Christiane;RGVtYW5kVXNlcjo1OTE2NjYy
https://www.airbnb.fr/rooms/1018773896368428343;Chambre simple devant la gare - Appartements  louer  Lyon, Auvergne-Rh么ne-Alpes, France - Airbnb;45.7464;4.8276;Thierno Sadou;RGVtYW5kVXNlcjo1NDUyMDUzNjk=
https://www.airbnb.fr/rooms/44555078;Chambre priv茅e comme  la maison - Appartements  louer  Lyon, Auvergne-Rh么ne-Alpes, France - Airbnb;45.76249;4.79944;Carole;RGVtYW5kVXNlcjoxMjQxMTM3NTQ=
https://www.airbnb.fr/rooms/857171169784217789;Belle chambre priv茅e - Appartements  louer  Lyon, Auvergne-Rh么ne-Alpes, France - Airbnb;45.74002055487658;4.873968603712791;Ahmad;RGVtYW5kVXNlcjozMjMzMTE1MQ==
https://www.airbnb.fr/rooms/44674477;Chambre priv茅e dans T3 avec jardin - Appartements en r茅sidence  louer  V茅nissieux, Auvergne-Rh么ne-Alpes, France - Airbnb;45.72;4.86792;Laurie;RGVtYW5kVXNlcjo2NzQ0NjE0MQ==
https://www.airbnb.fr/rooms/845492857136556689;Chambre dans grand appartement plein centre Lyon - Appartements  louer  Lyon, Auvergne-Rh么ne-Alpes, France - Airbnb;45.75858;4.8415;Ben;RGVtYW5kVXNlcjoyMzkyMTY1MA==
https://www.airbnb.fr/rooms/973982325103262030;Bienvenue ! client猫le f茅minine uniquement - Maisons  louer  Pommiers, Auvergne-Rh么ne-Alpes, France - Airbnb;45.96001;4.70959;Sophie;RGVtYW5kVXNlcjo0NDg2MTg3NzE=
https://www.airbnb.fr/rooms/725953224201782912;Chambre agr茅able et calme dans un joli hameau - Maisons  louer  Saint-Martin-en-Haut, Auvergne-Rh么ne-Alpes, France - Airbnb;45.6693;4.573;Roland Et Saida;RGVtYW5kVXNlcjoyNjc4ODM4MA==
https://www.airbnb.fr/rooms/13602147;Chambre dans appartement Part Dieu/Universit茅 - Appartements  louer  Lyon, Auvergne Rh么ne-Alpes, France - Airbnb;45.74867;4.85711;Emile;RGVtYW5kVXNlcjoxNDI3NTE4OA==
https://www.airbnb.fr/rooms/4515610;studio avec mezzanine - Maisons de ville  louer  Lyon, Rh么ne-Alpes, France - Airbnb;45.72608;4.87961;Denis;RGVtYW5kVXNlcjoxNTg1NDg4MA==
https://www.airbnb.fr/rooms/1096939680854306693;Chambre priv茅e chaleureuse et confortable  Villeurbanne - Appartements  louer  Villeurbanne, Auvergne-Rh么ne-Alpes, France - Airbnb;45.75922;4.91782;Dang;RGVtYW5kVXNlcjoxNjY2MTM5NDA=
https://www.airbnb.fr/rooms/777652688895330378;Une chambre spacieuse et confortable dans un endroit calme. - Appartements  louer  Lyon, Auvergne-Rh么ne-Alpes, France - Airbnb;45.74757;4.84439;Pawe;RGVtYW5kVXNlcjoyMTUwMTcxMDk=
https://www.airbnb.fr/rooms/16170331;Chambre proche du CNPE EDF du Bugey - Maisons  louer  Meximieux, Auvergne-Rh么ne-Alpes, France - Airbnb;45.90922;5.2017;V茅ronique;RGVtYW5kVXNlcjoyMDU0NTkxNw==
https://www.airbnb.fr/rooms/719836742795623582;La Belle Vie / Chambre 2 - Appartements  louer  Lyon, Auvergne-Rh么ne-Alpes, France - Airbnb;45.77348;4.80809;L茅na;RGVtYW5kVXNlcjoxMzQ1NjU0NTQ=
https://www.airbnb.fr/rooms/620944583316947088;Cuevas- T2 Chaleureux - Appartements  louer  Lorette, Auvergne-Rh么ne-Alpes, France - Airbnb;45.51083;4.5802;Julie;RGVtYW5kVXNlcjo3OTI3MDI1
https://www.airbnb.fr/rooms/6675966;Studio Lyon-Villeurbanne WIFI-TV - Appartements  louer  Villeurbanne, Rh么ne-Alpes, France - Airbnb;45.76251;4.89301;Alban;RGVtYW5kVXNlcjoyMTQ4Mjk1Nw==
https://www.airbnb.fr/rooms/43533359;Chambre dans appartement spacieux prox. la doua - Appartements  louer  Villeurbanne, Auvergne-Rh么ne-Alpes, France - Airbnb;45.7777;4.88819;Emile;RGVtYW5kVXNlcjoxNDI3NTE4OA==
https://www.airbnb.fr/rooms/889477935410767928;"Chambre ""V"" dans vaste apt - Appartements  louer  Saint-Priest, Auvergne-Rh么ne-Alpes, France - Airbnb";45.6935;4.9401;Maryline;RGVtYW5kVXNlcjozOTAwOTgyMQ==
https://www.airbnb.fr/rooms/1068662634621478740;Studio Cosy, Flachet, Netflix - Appartements  louer  Villeurbanne, Auvergne-Rh么ne-Alpes, France - Airbnb;45.7641;4.89467;Mouaouia;RGVtYW5kVXNlcjo1NTU2MzA1NTE=
https://www.airbnb.fr/rooms/18251900;Grange Blanche -Chambre au calme pr猫s de tout. - Appartements  louer  Lyon-8E-Arrondissement, Auvergne-Rh么ne-Alpes, France - Airbnb;45.7408;4.8748;Olga;RGVtYW5kVXNlcjoxMjI4OTMzNg==
https://www.airbnb.fr/rooms/901547926172739751;"Chambre ""B"" dans bel appt r茅nov茅 - Appartements  louer  Saint-Priest, Auvergne-Rh么ne-Alpes, France - Airbnb";45.69317;4.93938;Maryline;RGVtYW5kVXNlcjozOTAwOTgyMQ==
https://www.airbnb.fr/rooms/1097171839084811822;Superbe studio cosy RDC, Flachet - Appartements  louer  Villeurbanne, Auvergne-Rh么ne-Alpes, France - Airbnb;45.76405;4.89367;Mouaouia;RGVtYW5kVXNlcjo1NTU2MzA1NTE=
https://www.airbnb.fr/rooms/905598888039381174;"Chbre ""G"" dans bel appt lumineux - Appartements  louer  Saint-Priest, Auvergne-Rh么ne-Alpes, France - Airbnb";45.69294;4.94099;Maryline;RGVtYW5kVXNlcjozOTAwOTgyMQ==
https://www.airbnb.fr/rooms/960021722320143598;Bienvenue  Saxe Gambetta - Appartements  louer  Lyon, Auvergne-Rh么ne-Alpes, France - Airbnb;45.7513;4.847;Lina;RGVtYW5kVXNlcjo1MzIxNzY0MjY=
https://www.airbnb.fr/rooms/1033125343791733816;Bienvenue  Confluence - Appartements  louer  Lyon, Auvergne-Rh么ne-Alpes, France - Airbnb;45.747;4.8218;Lina;RGVtYW5kVXNlcjo1MzIxNzY0MjY=
https://www.airbnb.fr/rooms/1032678620742332154;Bienvenue  Jean Mac茅 - Appartements  louer  Lyon, Auvergne-Rh么ne-Alpes, France - Airbnb;45.7409;4.8519;Lina;RGVtYW5kVXNlcjo1MzIxNzY0MjY=
https://www.airbnb.fr/rooms/1096983171690940004;Bienvenue  Montplaisir - Appartements  louer  Lyon, Auvergne-Rh么ne-Alpes, France - Airbnb;45.742;4.8689;Lina;RGVtYW5kVXNlcjo1MzIxNzY0MjY=
https://www.airbnb.fr/rooms/1094727408216926546;Bienvenue  Charpennes - Appartements  louer  Villeurbanne, Auvergne-Rh么ne-Alpes, France - Airbnb;45.7745;4.8684;Lina;RGVtYW5kVXNlcjo1MzIxNzY0MjY=
https://www.airbnb.fr/rooms/1033964799062051687;Bienvenue  Jean Mac茅 - Appartements  louer  Lyon, Auvergne-Rh么ne-Alpes, France - Airbnb;45.7409;4.8519;Lina;RGVtYW5kVXNlcjo1MzIxNzY0MjY=
https://www.airbnb.fr/rooms/1088185936815019231;Bienvenue  Croix Rousse - Appartements  louer  Lyon, Auvergne-Rh么ne-Alpes, France - Airbnb;45.7768;4.8322;Lina;RGVtYW5kVXNlcjo1MzIxNzY0MjY=
https://www.airbnb.fr/rooms/1008106316836919614;Bienvenue  Part Dieu - Appartements  louer  Villeurbanne, Auvergne-Rh么ne-Alpes, France - Airbnb;45.7664;4.8687;Lina;RGVtYW5kVXNlcjo1MzIxNzY0MjY=
https://www.airbnb.fr/rooms/1001412311737822147;Bienvenue  Part Dieu - Appartements  louer  Lyon, Auvergne-Rh么ne-Alpes, France - Airbnb;45.7518;4.872;Lina;RGVtYW5kVXNlcjo1MzIxNzY0MjY=
https://www.airbnb.fr/rooms/989763953759628969;Bienvenue  Montchat - Appartements  louer  Lyon, Auvergne-Rh么ne-Alpes, France - Airbnb;45.7541;4.8894;Lina;RGVtYW5kVXNlcjo1MzIxNzY0MjY=
https://www.airbnb.fr/rooms/1032598104197257992;Bienvenue  Gerland - Appartements  louer  Lyon, Auvergne-Rh么ne-Alpes, France - Airbnb;45.7379;4.8397;Lina;RGVtYW5kVXNlcjo1MzIxNzY0MjY=
https://www.airbnb.fr/rooms/1102709579574432409;Bienvenue  Grange Blanche - Appartements  louer  Lyon, Auvergne-Rh么ne-Alpes, France - Airbnb;45.746;4.8794;Lina;RGVtYW5kVXNlcjo1MzIxNzY0MjY=
https://www.airbnb.fr/rooms/1034651153699088563;Bienvenue  Villeurbanne - Appartements  louer  Villeurbanne, Auvergne-Rh么ne-Alpes, France - Airbnb;45.7606;4.8849;Lina;RGVtYW5kVXNlcjo1MzIxNzY0MjY=
https://www.airbnb.fr/rooms/1033150489006639426;Bienvenue  Part-Dieu Villette - Appartements  louer  Lyon, Auvergne-Rh么ne-Alpes, France - Airbnb;45.7561;4.8746;Lina;RGVtYW5kVXNlcjo1MzIxNzY0MjY=
https://www.airbnb.fr/rooms/1026019327867356474;Bienvenue au Quai du Rh么ne - Appartements  louer  Lyon, Auvergne-Rh么ne-Alpes, France - Airbnb;45.7789;4.8407;Lina;RGVtYW5kVXNlcjo1MzIxNzY0MjY=
https://www.airbnb.fr/rooms/987545159462255172;Bienvenue  Caluire - Appartements  louer  Caluire-et-Cuire, Auvergne-Rh么ne-Alpes, France - Airbnb;45.7903;4.8592;Lina;RGVtYW5kVXNlcjo1MzIxNzY0MjY=
https://www.airbnb.fr/rooms/1034581560051445517;Bienvenue  Monplaisir - Appartements  louer  Lyon, Auvergne-Rh么ne-Alpes, France - Airbnb;45.742;4.8689;Lina;RGVtYW5kVXNlcjo1MzIxNzY0MjY=
https://www.airbnb.fr/rooms/1033160482324325540;Bienvenue  Monplaisir - Appartements  louer  Lyon, Auvergne-Rh么ne-Alpes, France - Airbnb;45.742;4.8689;Lina;RGVtYW5kVXNlcjo1MzIxNzY0MjY=
https://www.airbnb.fr/rooms/1095415283210980829;Bienvenue  Montchat - Appartements  louer  Lyon, Auvergne-Rh么ne-Alpes, France - Airbnb;45.7473;4.8872;Lina;RGVtYW5kVXNlcjo1MzIxNzY0MjY=
https://www.airbnb.fr/rooms/1032675961011883242;Bienvenue  Charpennes - Appartements  louer  Villeurbanne, Auvergne-Rh么ne-Alpes, France - Airbnb;45.7745;4.8684;Lina;RGVtYW5kVXNlcjo1MzIxNzY0MjY=
https://www.airbnb.fr/rooms/1104127647060605682;Bienvenue  Montchat - Appartements  louer  Lyon, Auvergne-Rh么ne-Alpes, France - Airbnb;45.7541;4.8894;Lina;RGVtYW5kVXNlcjo1MzIxNzY0MjY=
https://www.airbnb.fr/rooms/1097045065939117094;Bienvenue  Charpennes - Appartements  louer  Villeurbanne, Auvergne-Rh么ne-Alpes, France - Airbnb;45.7745;4.8684;Lina;RGVtYW5kVXNlcjo1MzIxNzY0MjY=
https://www.airbnb.fr/rooms/1032681849135769916;Bienvenue  Part Dieu - Appartements  louer  Lyon, Auvergne-Rh么ne-Alpes, France - Airbnb;45.7518;4.872;Lina;RGVtYW5kVXNlcjo1MzIxNzY0MjY=
https://www.airbnb.fr/rooms/1088929810720533304;Bienvenue  Part Dieu - Appartements  louer  Lyon, Auvergne-Rh么ne-Alpes, France - Airbnb;45.7563;4.8728;Lina;RGVtYW5kVXNlcjo1MzIxNzY0MjY=
https://www.airbnb.fr/rooms/1102863051007157732;Bienvenue  Part-Dieu Villette - Appartements  louer  Lyon, Auvergne-Rh么ne-Alpes, France - Airbnb;45.7561;4.8746;Lina;RGVtYW5kVXNlcjo1MzIxNzY0MjY=
https://www.airbnb.fr/rooms/1009130388722130848;Bel Appt Lumineux Avec Terrasse - Appartements  louer  Lyon, Auvergne-Rh么ne-Alpes, France - Airbnb;45.80456;4.83552;Nicolas;RGVtYW5kVXNlcjo1NDE4MDM5MTM=
https://www.airbnb.fr/rooms/1096244866570089833;Bienvenue  Jean Mac茅 - Appartements  louer  Lyon, Auvergne-Rh么ne-Alpes, France - Airbnb;45.7409;4.8519;Lina;RGVtYW5kVXNlcjo1MzIxNzY0MjY=
https://www.airbnb.fr/rooms/1114277882258684975;Gite de la Roche - Appartements  louer  Saint-Alban-de-Roche, Auvergne-Rh么ne-Alpes, France - Airbnb;45.595041355636965;5.223088247359822;Yann;RGVtYW5kVXNlcjoyMDQ4ODY2NzQ=
https://www.airbnb.fr/rooms/1045625637781127444;Studio terrasse proche parc technologique - Appartements  louer  Saint-Priest, Auvergne-Rh么ne-Alpes, France - Airbnb;45.70618286734034;4.929643142650253;Maryline;RGVtYW5kVXNlcjo1MzU0Mzk2NTc=
https://www.airbnb.fr/rooms/780905048861649454;"bnbg么nes - PORTE DE LYON ""Le Terracotta"" - Appartements  louer  Dardilly, Auvergne-Rh么ne-Alpes, France - Airbnb";45.821;4.763;Bnbg么nes;RGVtYW5kVXNlcjo0MTIwNDkzMTA=
https://www.airbnb.fr/rooms/49724200;La Maison Gratte Ciel-Appartement Paris-Jardin - Appartements  louer  Villeurbanne, Auvergne-Rh么ne-Alpes, France - Airbnb;45.774;4.8836;David;RGVtYW5kVXNlcjoyMjYyMTY5MjI=
https://www.airbnb.fr/rooms/34270499;MEMORABLEPLACE-Cocon Monts d'Or - Village pr茅serv茅 - Appartements  louer  Saint-Germain-au-Mont-dOr, France - Airbnb;45.87846;4.80579;Memorable;RGVtYW5kVXNlcjo0MTQ0NzYwMDI=
https://www.airbnb.fr/rooms/46727903;Confort assur茅 - Appartements  louer  Vienne, Auvergne-Rh么ne-Alpes, France - Airbnb;45.53484;4.88529;Karima;RGVtYW5kVXNlcjoyMDU0NDMxMTc=
https://www.airbnb.fr/rooms/46772520;Studio cosy - Appartements  louer  Vienne, Auvergne-Rh么ne-Alpes, France - Airbnb;45.5352;4.88702;Karima;RGVtYW5kVXNlcjoyMDU0NDMxMTc=
https://www.airbnb.fr/rooms/46724192;Bien comme chez soi - Appartements  louer  Vienne, Auvergne-Rh么ne-Alpes, France - Airbnb;45.53452;4.88659;Karima;RGVtYW5kVXNlcjoyMDU0NDMxMTc=
https://www.airbnb.fr/rooms/1067936151264782536;Le superbe cocon avec chemin茅e - Appartements  louer  Villeurbanne, Auvergne-Rh么ne-Alpes, France - Airbnb;45.759267841143824;4.887592292164235;Mouaouia;RGVtYW5kVXNlcjo1NTU2MzA1NTE=
https://www.airbnb.fr/rooms/1028405280862618178;Chambre au calme  la Part-Dieu - Appartements  louer  Lyon, Auvergne-Rh么ne-Alpes, France - Airbnb;45.75842591943773;4.866203995977452;Renaud;RGVtYW5kVXNlcjoxNTUyNjY2NjU=
https://www.airbnb.fr/rooms/53147076;Studio au pied du m茅tro - Appartements  louer  Villeurbanne, Auvergne-Rh么ne-Alpes, France - Airbnb;45.76828;4.88942;Jerome;RGVtYW5kVXNlcjo2MDQ1MTYwNg==
https://www.airbnb.fr/rooms/37136216;Studio moderne et lumineux proche de la Part-Dieu - Appartements  louer  Lyon, France - Airbnb;45.75746;4.86815;Welkeys;RGVtYW5kVXNlcjoxMjU3OTc0OTg=
https://www.airbnb.fr/rooms/998376908302832277;Bienvenue  Villeurbanne - Appartements  louer  Villeurbanne, Auvergne-Rh么ne-Alpes, France - Airbnb;45.7642;4.882;Lina;RGVtYW5kVXNlcjo1MzIxNzY0MjY=
https://www.airbnb.fr/rooms/689583938398176021;Chez Jostel -Chambre 5- Au pied de la Sa么ne - Appartements  louer  Genay, Auvergne-Rh么ne-Alpes, France - Airbnb;45.89307;4.80897;Romain;RGVtYW5kVXNlcjoxNzY5MDQwMjk=
https://www.airbnb.fr/rooms/930171143035300416;Appartement Duplex Terrasse - Appartements  louer  Saint-Priest, Auvergne-Rh么ne-Alpes, France - Airbnb;45.70486005506275;4.918066368261687;Michael;RGVtYW5kVXNlcjoyNDcyMjc5Mg==
https://www.airbnb.fr/rooms/1115256231037240648;Bienvenue  Vaise - Appartements  louer  Lyon, Auvergne-Rh么ne-Alpes, France - Airbnb;45.7737;4.8082;Lina;RGVtYW5kVXNlcjo1MzIxNzY0MjY=
https://www.airbnb.fr/rooms/1104895336462841727;Bienvenue  Croix Rousse - Appartements  louer  Lyon, Auvergne-Rh么ne-Alpes, France - Airbnb;45.7769;4.8343;Lina;RGVtYW5kVXNlcjo1MzIxNzY0MjY=
https://www.airbnb.fr/rooms/1033177326169718011;Bienvenue  Gare Part Dieu - Appartements  louer  Lyon, Auvergne-Rh么ne-Alpes, France - Airbnb;45.7551;4.8696;Lina;RGVtYW5kVXNlcjo1MzIxNzY0MjY=
https://www.airbnb.fr/rooms/1085454185660759641;Bienvenue  Montplaisir - Appartements  louer  Lyon, Auvergne-Rh么ne-Alpes, France - Airbnb;45.7402;4.8638;Lina;RGVtYW5kVXNlcjo1MzIxNzY0MjY=
https://www.airbnb.fr/rooms/1070799435314552833;Bienvenue  Garibaldi - Appartements  louer  Lyon, Auvergne-Rh么ne-Alpes, France - Airbnb;45.7567;4.8494;Lina;RGVtYW5kVXNlcjo1MzIxNzY0MjY=
https://www.airbnb.fr/rooms/1032608672201932400;Bienvenue  Croix Rousse - Appartements  louer  Lyon, Auvergne-Rh么ne-Alpes, France - Airbnb;45.7781;4.8336;Lina;RGVtYW5kVXNlcjo1MzIxNzY0MjY=
https://www.airbnb.fr/rooms/1094852280279882406;Bienvenue  Charpennes - Appartements  louer  Villeurbanne, Auvergne-Rh么ne-Alpes, France - Airbnb;45.7708;4.8686;Lina;RGVtYW5kVXNlcjo1MzIxNzY0MjY=
https://www.airbnb.fr/rooms/1068153394171669951;Appartement  aire ouverte - Appartements  louer  Lyon, Auvergne-Rh么ne-Alpes, France - Airbnb;45.7392;4.8636;Rabah;RGVtYW5kVXNlcjo1NDc0MDM5MTc=
https://www.airbnb.fr/rooms/1078897812403568831;Bienvenue  Villeurbanne - Appartements  louer  Villeurbanne, Auvergne-Rh么ne-Alpes, France - Airbnb;45.7742;4.887;Lina;RGVtYW5kVXNlcjo1MzIxNzY0MjY=
https://www.airbnb.fr/rooms/43605076;La Griotte - Studio Tassin - Lyon - Appartements  louer  Tassin-la-Demi-Lune, Auvergne-Rh么ne-Alpes, France - Airbnb;45.76159;4.77118;Soline;RGVtYW5kVXNlcjoyMjUxMzkxMg==
https://www.airbnb.fr/rooms/22393823;Studio canut au coeur de la Croix-Rousse - Appartements  louer  Lyon, Auvergne-Rh么ne-Alpes, France - Airbnb;45.7771;4.8337;Tatiana & Ben;RGVtYW5kVXNlcjo0ODkzODcw
https://www.airbnb.fr/rooms/52734838;Studio cosy dans propri茅t茅 au calme absolu - Appartements en r茅sidence  louer  Pollionnay, Auvergne-Rh么ne-Alpes, France - Airbnb;45.7903;4.65462;Laurent;RGVtYW5kVXNlcjo0MjAwOTg5MQ==
https://www.airbnb.fr/rooms/741738618597056667;Chambre priv茅e dans r茅sidence arbor茅e de verdure - Appartements en r茅sidence  louer  Lyon, Auvergne-Rh么ne-Alpes, France - Airbnb;45.734280640304654;4.825596060111181;Brygida;RGVtYW5kVXNlcjo1NTMwOTgyNg==
https://www.airbnb.fr/rooms/47046066;Le Burlat - Studio Tassin -  Lyon - Appartements  louer  Tassin-la-Demi-Lune, Auvergne-Rh么ne-Alpes, France - Airbnb;45.76118;4.77131;Soline;RGVtYW5kVXNlcjoyMjUxMzkxMg==
https://www.airbnb.fr/rooms/633093497612066115;Lyon : Chambre dans superbe appartement - Appartements en r茅sidence  louer  Lyon, Auvergne-Rh么ne-Alpes, France - Airbnb;45.7728;4.8145;Am茅lie;RGVtYW5kVXNlcjozMDczNzEwNTE=
https://www.airbnb.fr/rooms/871000618851300443;Chambre simple priv茅e Croix Rousse - Appartements  louer  Lyon, Auvergne-Rh么ne-Alpes, France - Airbnb;45.77191206482669;4.833042106602128;Joanne;RGVtYW5kVXNlcjoxMTg0MTE4Ng==
https://www.airbnb.fr/rooms/42800685;Chambre dans un canut d'exception avec petit-d茅j' - Appartements  louer  Lyon, Auvergne-Rh么ne-Alpes, France - Airbnb;45.77322;4.83779;Antoine;RGVtYW5kVXNlcjoxNTgwMjA3
https://www.airbnb.fr/rooms/1036734164850569477;Bienvenue  Montplaisir - Appartements  louer  Lyon, Auvergne-Rh么ne-Alpes, France - Airbnb;45.7454;4.8635;Lina;RGVtYW5kVXNlcjo1MzIxNzY0MjY=
https://www.airbnb.fr/rooms/982498441122800792;Bienvenue  Vaise - Appartements  louer  Lyon, Auvergne-Rh么ne-Alpes, France - Airbnb;45.7778;4.8018;Lina;RGVtYW5kVXNlcjo1MzIxNzY0MjY=
https://www.airbnb.fr/rooms/989747841838235479;Bienvenue  Gare de Vaise - Appartements  louer  Lyon, Auvergne-Rh么ne-Alpes, France - Airbnb;45.7779;4.8049;Lina;RGVtYW5kVXNlcjo1MzIxNzY0MjY=
https://www.airbnb.fr/rooms/1036185708854034771;Bienvenue  Montchat - Appartements  louer  Lyon, Auvergne-Rh么ne-Alpes, France - Airbnb;45.751;4.8896;Lina;RGVtYW5kVXNlcjo1MzIxNzY0MjY=
https://www.airbnb.fr/rooms/1102069815696945644;Bienvenue  Part Dieu - Appartements  louer  Villeurbanne, Auvergne-Rh么ne-Alpes, France - Airbnb;45.7639;4.873;Lina;RGVtYW5kVXNlcjo1MzIxNzY0MjY=
https://www.airbnb.fr/rooms/1025125600963822059;Bienvenue  La Part Dieu - Appartements  louer  Lyon, Auvergne-Rh么ne-Alpes, France - Airbnb;45.7631;4.8528;Lina;RGVtYW5kVXNlcjo1MzIxNzY0MjY=
https://www.airbnb.fr/rooms/1032547352507615185;Bienvenue  Gare la Part Dieu - Appartements  louer  Lyon, Auvergne-Rh么ne-Alpes, France - Airbnb;45.7551;4.8696;Lina;RGVtYW5kVXNlcjo1MzIxNzY0MjY=
https://www.airbnb.fr/rooms/1100182074568917914;Bienvenue  Vaise - Appartements  louer  Lyon, Auvergne-Rh么ne-Alpes, France - Airbnb;45.774;4.8079;Lina;RGVtYW5kVXNlcjo1MzIxNzY0MjY=
https://www.airbnb.fr/rooms/740496090574830189;Chambre priv茅e au calme - Appartements  louer  Villeurbanne, Auvergne-Rh么ne-Alpes, France - Airbnb;45.75966419755367;4.898368218329192;Cl茅ment;RGVtYW5kVXNlcjo2ODM2OTIwMw==
https://www.airbnb.fr/rooms/1011421151803386657;Welcome To Les Brotteaux - Appartements  louer  Lyon, Auvergne-Rh么ne-Alpes, France - Airbnb;45.7708;4.8587;Lina;RGVtYW5kVXNlcjo1MzIxNzY0MjY=
https://www.airbnb.fr/rooms/1030990555788709632;Bienvenue  Sainte Foy Les Lyon - Appartements  louer  La Mulati猫re, Auvergne-Rh么ne-Alpes, France - Airbnb;45.723;4.8038;Lina;RGVtYW5kVXNlcjo1MzIxNzY0MjY=
https://www.airbnb.fr/rooms/964169154520746468;Bienvenue  Vaise - Appartements  louer  Lyon, Auvergne-Rh么ne-Alpes, France - Airbnb;45.7792;4.8051;Lina;RGVtYW5kVXNlcjo1MzIxNzY0MjY=
https://www.airbnb.fr/rooms/1008085160955265993;Bienvenue  Vaise - Appartements  louer  Lyon, Auvergne-Rh么ne-Alpes, France - Airbnb;45.7781;4.8022;Lina;RGVtYW5kVXNlcjo1MzIxNzY0MjY=
https://www.airbnb.fr/rooms/1079661957879488646;Bienvenue  Vaise - Appartements  louer  Lyon, Auvergne-Rh么ne-Alpes, France - Airbnb;45.7792;4.8046;Lina;RGVtYW5kVXNlcjo1MzIxNzY0MjY=
https://www.airbnb.fr/rooms/1070214661569337612;Bienvenue  Bellecour - Appartements  louer  Lyon, Auvergne-Rh么ne-Alpes, France - Airbnb;45.7544;4.8322;Lina;RGVtYW5kVXNlcjo1MzIxNzY0MjY=
https://www.airbnb.fr/rooms/1070891954155282400;Bienvenue  Guilloti猫re - Appartements  louer  Lyon, Auvergne-Rh么ne-Alpes, France - Airbnb;45.7547;4.8441;Lina;RGVtYW5kVXNlcjo1MzIxNzY0MjY=
https://www.airbnb.fr/rooms/547540667844144723;Duplex Poizat - joli appartement - Villeurbanne - Appartements  louer  Villeurbanne, Auvergne-Rh么ne-Alpes, France - Airbnb;45.75832;4.89421;David;RGVtYW5kVXNlcjoyMjYyMTY5MjI=
https://www.airbnb.fr/rooms/1731116;Chambre et salle de bain priv茅e - Appartements  louer  Lyon, Auvergne-Rh么ne-Alpes, France - Airbnb;45.7402;4.8383;Sarah;RGVtYW5kVXNlcjo4OTc3MjM5
https://www.airbnb.fr/rooms/1076021971686016354;Bienvenue  Garibaldi - Appartements  louer  Lyon, Auvergne-Rh么ne-Alpes, France - Airbnb;45.7542;4.8517;Lina;RGVtYW5kVXNlcjo1MzIxNzY0MjY=
https://www.airbnb.fr/rooms/703621612170226303;Studio Cosy - Appartements en r茅sidence  louer  Villeurbanne, Auvergne-Rh么ne-Alpes, France - Airbnb;45.7783;4.8837;Ambre;RGVtYW5kVXNlcjozNTI0NjA0MDI=
https://www.airbnb.fr/rooms/973086768044084376;Lumineux Studio en plein Centre Lyon - Appartements  louer  Villeurbanne, Auvergne-Rh么ne-Alpes, France - Airbnb;45.76846;4.87494;Natalia;RGVtYW5kVXNlcjo1MzU0NTY0NTA=
https://www.airbnb.fr/rooms/1099795847701967421;Le Mignon - Studio cosy proche m茅tro A - Appartements  louer  Villeurbanne, Auvergne-Rh么ne-Alpes, France - Airbnb;45.77184747433814;4.88033706145658;Annabelle Bnb Agency;RGVtYW5kVXNlcjo1MzU1ODY4MzQ=
https://www.airbnb.fr/rooms/49722301;La Maison Gratte Ciel - Studio New York - Jardin - Appartements  louer  Villeurbanne, Auvergne-Rh么ne-Alpes, France - Airbnb;45.774;4.8836;David;RGVtYW5kVXNlcjoyMjYyMTY5MjI=
https://www.airbnb.fr/rooms/618007642234229707;Centre Lyon - Charpennes - Appartements  louer  Villeurbanne, Auvergne-Rh么ne-Alpes, France - Airbnb;45.77204;4.86788;Nabil;RGVtYW5kVXNlcjo3NjcxMjI4MA==
https://www.airbnb.fr/rooms/988424147578957399;logement 75m2 independant ,2ch +salon pas de coloc - Appartements  louer  V茅nissieux, Auvergne-Rh么ne-Alpes, France - Airbnb;45.701948357824726;4.87550040291976;Monique;RGVtYW5kVXNlcjoyMTgyNjY3MjI=
https://www.airbnb.fr/rooms/1033897999411077717;Bienvenue  Part Dieu - Appartements  louer  Lyon, Auvergne-Rh么ne-Alpes, France - Airbnb;45.7597;4.8694;Lina;RGVtYW5kVXNlcjo1MzIxNzY0MjY=
https://www.airbnb.fr/rooms/1032590861875957572;Bienvenue  Croix Rousse - Appartements  louer  Lyon, Auvergne-Rh么ne-Alpes, France - Airbnb;45.7781;4.8336;Lina;RGVtYW5kVXNlcjo1MzIxNzY0MjY=
https://www.airbnb.fr/rooms/998427836414890113;Bienvenue  Charpennes - Appartements  louer  Villeurbanne, Auvergne-Rh么ne-Alpes, France - Airbnb;45.7717;4.8633;Lina;RGVtYW5kVXNlcjo1MzIxNzY0MjY=
https://www.airbnb.fr/rooms/1096312744233156109;Bienvenue  Saxe Gambetta - Appartements  louer  Lyon, Auvergne-Rh么ne-Alpes, France - Airbnb;45.7504;4.8434;Lina;RGVtYW5kVXNlcjo1MzIxNzY0MjY=
https://www.airbnb.fr/rooms/1034618481627329127;Bienvenue  Vaise - Appartements  louer  Lyon, Auvergne-Rh么ne-Alpes, France - Airbnb;45.7794;4.8052;Lina;RGVtYW5kVXNlcjo1MzIxNzY0MjY=
https://www.airbnb.fr/rooms/1034873754837690126;Bienvenue  Charpennes - Appartements  louer  Villeurbanne, Auvergne-Rh么ne-Alpes, France - Airbnb;45.77;4.8659;Lina;RGVtYW5kVXNlcjo1MzIxNzY0MjY=
https://www.airbnb.fr/rooms/1091147218113336680;Joli T2 proche gare - m茅tro - tram - Appartements  louer  Lyon, Auvergne-Rh么ne-Alpes, France - Airbnb;45.73924440996279;4.865942577571976;Rodolphe;RGVtYW5kVXNlcjo5OTg5Mzc0NQ==
https://www.airbnb.fr/rooms/1044180528704020621;Suite D茅tente,  Bon Temps - Appartements  louer  Chasse-sur-Rh么ne, Auvergne-Rh么ne-Alpes, France - Airbnb;45.5837;4.7838;Fabien;RGVtYW5kVXNlcjo1MjA3NzAwMjE=
https://www.airbnb.fr/rooms/20799511;Chambre priv茅e 10 m2 chez l habitant - Appartements  louer  D茅cines-Charpieu, Auvergne-Rh么ne-Alpes, France - Airbnb;45.7687;4.94292;Marie Eve;RGVtYW5kVXNlcjoxNDkxMTg0NzU=
https://www.airbnb.fr/rooms/21710167;Studio calme proche gare Part Dieu - Appartements  louer  Villeurbanne, Auvergne-Rh么ne-Alpes, France - Airbnb;45.7683;4.8659;Elise & Rafael;RGVtYW5kVXNlcjoxNTgwNTYyNTk=
https://www.airbnb.fr/rooms/1504801;Chambre ind茅pendante sur jardin - Appartements  louer  Lyon, Rh么ne-Alpes, France - Airbnb;45.779;4.835;Isabelle & Daniel;RGVtYW5kVXNlcjo4MDQwMTI4
https://www.airbnb.fr/rooms/1032569055020114751;Bienvenue  Charpennes - Appartements  louer  Villeurbanne, Auvergne-Rh么ne-Alpes, France - Airbnb;45.7702;4.8657;Lina;RGVtYW5kVXNlcjo1MzIxNzY0MjY=
https://www.airbnb.fr/rooms/15210441;Studio Port Galland 1  5mn CNPE - Maisons  louer  Saint-Maurice-de-Gourdans, Auvergne-Rh么ne-Alpes, France - Airbnb;45.81913;5.20901;Chris;RGVtYW5kVXNlcjo1NzIzNDEzMw==
https://www.airbnb.fr/rooms/52364676;Studio Port Galland 2, 5mn CNPE - Appartements  louer  Saint-Maurice-de-Gourdans, Auvergne-Rh么ne-Alpes, France - Airbnb;45.81779;5.21014;Chris;RGVtYW5kVXNlcjo1NzIzNDEzMw==
https://www.airbnb.fr/rooms/15151756;Chambre spacieuse, lumineuse avec SDB priv茅e ! - Appartements  louer  Lyon, Auvergne-Rh么ne-Alpes, France - Airbnb;45.74299;4.84968;Nadia;RGVtYW5kVXNlcjoxNjE2MDAxNQ==
https://www.airbnb.fr/rooms/28404778;Plein sud - Maisons  louer  Vindry-sur-Turdine, Auvergne-Rh么ne-Alpes, France - Airbnb;45.87486;4.49903;Louis Et Madeleine;RGVtYW5kVXNlcjo2MzI2MTUyOQ==
https://www.airbnb.fr/rooms/1046286981905572425;"Studio avec terrasse 10"" de Lyon - Appartements  louer  Dardilly, Auvergne-Rh么ne-Alpes, France - Airbnb";45.809102137223434;4.731559472455369;Anais Et Son Papa;RGVtYW5kVXNlcjo0NjkxMTQxOTg=
https://www.airbnb.fr/rooms/41681155;Studio ind茅pendant dans maison - Appartements  louer  St cyr au mont d or, France - Airbnb;45.81097;4.81565;Jean Marc;RGVtYW5kVXNlcjoxMzk4NjkzNTE=
https://www.airbnb.fr/rooms/829553929516735423;Studio paisible - Appartements  louer  Vaulx-en-Velin, Auvergne-Rh么ne-Alpes, France - Airbnb;45.7745;4.9172;Irem;RGVtYW5kVXNlcjoyMDMwOTgzMzM=
https://www.airbnb.fr/rooms/1056960760346612852;Studio Cozy Altitude - Appartements  louer  La Mulati猫re, Auvergne-Rh么ne-Alpes, France - Airbnb;45.7328;4.8103;Fabien;RGVtYW5kVXNlcjo1MjA3NzAwMjE=
https://www.airbnb.fr/rooms/904889204488774681;Studio meubl茅 particulier - Appartements  louer  Meximieux, Auvergne-Rh么ne-Alpes, France - Airbnb;45.90593;5.19499;Christine;RGVtYW5kVXNlcjo1MTc2NzQ0NDM=
https://www.airbnb.fr/rooms/1017928335532541922;Chambre (Lyon) - Appartements  louer  Villeurbanne, Auvergne-Rh么ne-Alpes, France - Airbnb;45.77435;4.86038;Germain;RGVtYW5kVXNlcjo0NTY2OTAwMA==
https://www.airbnb.fr/rooms/42329852;Charmant studio Proche de Lyon - Appartements  louer  Saint-Alban-de-Roche, Auvergne-Rh么ne-Alpes, France - Airbnb;45.59839822405575;5.22293027625073;Sandra;RGVtYW5kVXNlcjoxOTU4NjEzMjE=
https://www.airbnb.fr/rooms/46008674;Chambre Jungle dans beau appartement Villeurbanne - Appartements  louer  Villeurbanne, Auvergne-Rh么ne-Alpes, France - Airbnb;45.75981;4.89623;Guillaume;RGVtYW5kVXNlcjoyNzcxNDkx
https://www.airbnb.fr/rooms/589211141271235178;"bnbg么nes - PORTE DE LYON ""LE FELIN"" - PARKING WIFI - Appartements  louer  Dardilly, Auvergne-Rh么ne-Alpes, France - Airbnb";45.82232;4.76114;Bnbg么nes;RGVtYW5kVXNlcjo0MTIwNDkzMTA=
https://www.airbnb.fr/rooms/1065538938045167039;Chez les Renardes - Appartements  louer  Lyon, Auvergne-Rh么ne-Alpes, France - Airbnb;45.74097894271697;4.838606554112446;Les Renardes;RGVtYW5kVXNlcjo1NTU1OTk4OTk=
https://www.airbnb.fr/rooms/18845255;Logement priv茅 dans maison en pierres dor茅es - Maisons  louer  Moranc茅, Auvergne-Rh么ne-Alpes, France - Airbnb;45.89048;4.68674;Yamina;RGVtYW5kVXNlcjoxNjUyMTU5NQ==
https://www.airbnb.fr/rooms/963003227180059070;Turquoise-chambre et sdb priv茅es - Appartements  louer  Lyon, Auvergne-Rh么ne-Alpes, France - Airbnb;45.752087378200684;4.840134940202762;Georges;RGVtYW5kVXNlcjo4NjAyNjQ4
https://www.airbnb.fr/rooms/843617244234455599;Chambre & sd bain priv茅es, loft partag茅, ROUGE - Appartements  louer  Lyon, Auvergne-Rh么ne-Alpes, France - Airbnb;45.75324582117895;4.840340506433088;Georges;RGVtYW5kVXNlcjo4NjAyNjQ4
https://www.airbnb.fr/rooms/51575033;T2 - 2/3 personnes - draps et serviettes en option - Appartements  louer  Lorette, Auvergne-Rh么ne-Alpes, France - Airbnb;45.5111;4.5778;Laurent;RGVtYW5kVXNlcjoxMTk2NDcxNDk=
https://www.airbnb.fr/rooms/881093289331964163;Chambre double priv茅e Croix Rousse - Appartements  louer  Lyon, Auvergne-Rh么ne-Alpes, France - Airbnb;45.7735070453643;4.833075421151974;Joanne;RGVtYW5kVXNlcjoxMTg0MTE4Ng==
https://www.airbnb.fr/rooms/19917664;Loft 40m2 dans belle propri茅t茅 - Appartements  louer  Lucenay, Auvergne-Rh么ne-Alpes, France - Airbnb;45.91966;4.70614;Marie Claude;RGVtYW5kVXNlcjoyNTk4MDU3Mw==
https://www.airbnb.fr/rooms/820331635842273646;Rez de jardin au calme, proche gare - Appartements  louer  Villeurbanne, Auvergne-Rh么ne-Alpes, France - Airbnb;45.76180513524488;4.883755891969332;M茅lodie;RGVtYW5kVXNlcjo4NzA5NjEzMg==
https://www.airbnb.fr/rooms/1008595624561540363;Chambre au milieu de la verdure - Appartements  louer  Lyon, Auvergne-Rh么ne-Alpes, France - Airbnb;45.79516348855181;4.818232875706156;Anne-Sophie;RGVtYW5kVXNlcjoyNDE4NjQ0Nzg=
https://www.airbnb.fr/rooms/3141551;Belle chambre au cur de la nature - Villas  louer  Francheville, Rh么ne-Alpes, France - Airbnb;45.73774;4.74689;Fatima;RGVtYW5kVXNlcjoxNTk0OTQ3Mw==
https://www.airbnb.fr/rooms/18981996;Suite avec SDB/WC privatifs dans jolie villa - Villas  louer  Oullins, Auvergne-Rh么ne-Alpes, France - Airbnb;45.7094;4.79826;Yannick;RGVtYW5kVXNlcjo5ODI3NTQ5
https://www.airbnb.fr/rooms/747719181166963660;Chambre priv茅e dans villa, au calme. - Villas  louer  Dardilly, Auvergne-Rh么ne-Alpes, France - Airbnb;45.7993;4.7532;Chantal;RGVtYW5kVXNlcjoyMDkzMTI1MTk=
https://www.airbnb.fr/rooms/20939285;chambre chez l'habitant - Appartements  louer  cully, Auvergne-Rh么ne-Alpes, France - Airbnb;45.77319;4.77588;Frederique;RGVtYW5kVXNlcjo3NzMwNTg5MA==
https://www.airbnb.fr/rooms/14781237;Chambre confortable dans villa s茅curis茅e - Maisons  louer  Limas, Auvergne-Rh么ne-Alpes, France - Airbnb;45.97297;4.70956;Salomon;RGVtYW5kVXNlcjo1ODk1NDA2OQ==
https://www.airbnb.fr/rooms/967979645311918268;Chambre dans un havre de paix : Chambre 2 - Maisons  louer  Dommartin, Auvergne-Rh么ne-Alpes, France - Airbnb;45.840706176022735;4.699348012150445;Laurence;RGVtYW5kVXNlcjoxNjQ5MTEwMDk=
https://www.airbnb.fr/rooms/618189480320962303;Chambre dans maison chaleureuse - Maisons  louer  Saint-Genis-Laval, Auvergne-Rh么ne-Alpes, France - Airbnb;45.68321;4.79734;Olfa;RGVtYW5kVXNlcjozNTA0MDk0MTY=
https://www.airbnb.fr/rooms/52091087;superbe appartement en r茅sidence avec chemin茅e - Appartements en r茅sidence  louer  Lyon, Auvergne-Rh么ne-Alpes, France - Airbnb;45.75384061666689;4.8776422818509415;Denis;RGVtYW5kVXNlcjo0MjE3NTIxMTY=
https://www.airbnb.fr/rooms/9182431;chambre dans village lit mezzanine - Maisons  louer  Millery, Rh么ne-Alpes, France - Airbnb;45.63732;4.78088;Jeannine;RGVtYW5kVXNlcjo3MzY3MTkx
https://www.airbnb.fr/rooms/46887212;La Palmeraie-joli studio-M茅tro Valmy-Vaise - Appartements  louer  Lyon, Auvergne-Rh么ne-Alpes, France - Airbnb;45.77696;4.80397;David;RGVtYW5kVXNlcjoyMjYyMTY5MjI=
https://www.airbnb.fr/rooms/914207678493803441;Le petit feuillat studio Maison Neuve Sans Soucis - Appartements  louer  Lyon, Auvergne-Rh么ne-Alpes, France - Airbnb;45.7547;4.8774;David;RGVtYW5kVXNlcjoyMjYyMTY5MjI=
https://www.airbnb.fr/rooms/1046319177243602232;Suite zen, Bon Temps - Appartements  louer  Chasse-sur-Rh么ne, Auvergne-Rh么ne-Alpes, France - Airbnb;45.58258673863202;4.784641797696004;Fabien;RGVtYW5kVXNlcjo1MjA3NzAwMjE=
https://www.airbnb.fr/rooms/1043943570615433076;Suite Cosy, O Bon Temps - Appartements  louer  Chasse-sur-Rh么ne, Auvergne-Rh么ne-Alpes, France - Airbnb;45.584783523021684;4.784199263944314;Fabien;RGVtYW5kVXNlcjo1MjA3NzAwMjE=
https://www.airbnb.fr/rooms/26339842;Chambre Priv茅e 20m2 - Appartements  louer  Lyon-8E-Arrondissement, Auvergne-Rh么ne-Alpes, France - Airbnb;45.7379;4.885;Patrick;RGVtYW5kVXNlcjoxOTc4MjY1Njg=
https://www.airbnb.fr/rooms/47085047;BEAU STUDIO 30 m2+ CENTRE de garage CALUIRE - Appartements en r茅sidence  louer  Caluire-et-Cuire, Auvergne-Rh么ne-Alpes, France - Airbnb;45.79963;4.8514;Evelyne;RGVtYW5kVXNlcjo4NzIzMTU2Mg==
https://www.airbnb.fr/rooms/1080936300279355678;Appartement neuf tout 茅quip茅 Lyon/Bron - Appartements  louer  Bron, Auvergne-Rh么ne-Alpes, France - Airbnb;45.7391;4.89423;Compose;RGVtYW5kVXNlcjo0MzQzNzY1OTA=
https://www.airbnb.fr/rooms/1041916505898950999;L'l茅gance Monochrome proche Lyon - Appartements  louer  Brignais, Auvergne-Rh么ne-Alpes, France - Airbnb;45.67353388051267;4.755304190346832;Elodie;RGVtYW5kVXNlcjo1MDA3MTQwMjE=
https://www.airbnb.fr/rooms/887362961017295016;LOasis des Iris - T2 - Appartements  louer  Villeurbanne, Auvergne-Rh么ne-Alpes, France - Airbnb;45.75398338011591;4.885746539597178;Bruno Jean;RGVtYW5kVXNlcjoxODc2NjY0Nzg=
https://www.airbnb.fr/rooms/12941886;Maison cozy + jardin 425m2, pkg, quartier calme - Maisons  louer  V茅nissieux, Auvergne Rh么ne-Alpes, France - Airbnb;45.71676;4.89027;S茅bastien;RGVtYW5kVXNlcjoyMzEwMDUxMg==
https://www.airbnb.fr/rooms/1089128040799016024;Appt. et garage : Gare SNCF, Univ - Appartements  louer  Villeurbanne, Auvergne-Rh么ne-Alpes, France - Airbnb;45.76778;4.8691;Alexis;RGVtYW5kVXNlcjo1NjE1MjAyODA=
https://www.airbnb.fr/rooms/840283472482856544;Studio chaleureux et cosy - Appartements  louer  Caluire-et-Cuire, Auvergne-Rh么ne-Alpes, France - Airbnb;45.7911;4.8595;Marie-Charlotte;RGVtYW5kVXNlcjoyNzczMzExNw==
https://www.airbnb.fr/rooms/596067963425506611;Le petit Strasbourg- Studio renov茅-3pers-Caluire - Appartements  louer  Caluire-et-Cuire, Auvergne-Rh么ne-Alpes, France - Airbnb;45.79286;4.86868;David;RGVtYW5kVXNlcjoyMjYyMTY5MjI=
https://www.airbnb.fr/rooms/558411506804361699;Le petit Poizat- cosy 2 pers-Villeurbanne - Appartements  louer  Villeurbanne, Auvergne-Rh么ne-Alpes, France - Airbnb;45.75849;4.89223;David;RGVtYW5kVXNlcjoyMjYyMTY5MjI=
https://www.airbnb.fr/rooms/1060163782431139566;Miami Appartement - Appartements  louer  Lyon, Auvergne-Rh么ne-Alpes, France - Airbnb;45.74984367001262;4.854426402257536;Sandra;RGVtYW5kVXNlcjo0NDcwNjM3MzQ=
https://www.airbnb.fr/rooms/1101580046481225831;Bienvenue  Vaise - Appartements  louer  Lyon, Auvergne-Rh么ne-Alpes, France - Airbnb;45.7794;4.8052;Lina;RGVtYW5kVXNlcjo1MzIxNzY0MjY=
https://www.airbnb.fr/rooms/1115795005680565760;Studio hyper Lumineux tout proche de Lyon - Appartements  louer  La Mulati猫re, Auvergne-Rh么ne-Alpes, France - Airbnb;45.7264;4.8117;S茅bastien;RGVtYW5kVXNlcjozMTk1MTI3MDI=
https://www.airbnb.fr/rooms/995477695056340984;Charmant refuge urbain - Appartements  louer  Villeurbanne, Auvergne-Rh么ne-Alpes, France - Airbnb;45.76804686971638;4.868863108166196;Jean Claude;RGVtYW5kVXNlcjoxNDc5Nzc0MQ==
https://www.airbnb.fr/rooms/1043926682550630542;O Bon Temps Lyon 8 - Suite 2 - Appartements  louer  Lyon, Auvergne-Rh么ne-Alpes, France - Airbnb;45.7248;4.8724;Fabien;RGVtYW5kVXNlcjo1MjA3NzAwMjE=
https://www.airbnb.fr/rooms/689564749103255624;Chez Jostel -Chambre 3- Au pied de la Sa么ne - Appartements  louer  Genay, Auvergne-Rh么ne-Alpes, France - Airbnb;45.89355;4.80938;Romain;RGVtYW5kVXNlcjoxNzY5MDQwMjk=
https://www.airbnb.fr/rooms/689529122382180904;Chez Jostel -Chambre 2- Au pied de la Sa么ne - Appartements  louer  Genay, Auvergne-Rh么ne-Alpes, France - Airbnb;45.89178;4.80907;Romain;RGVtYW5kVXNlcjoxNzY5MDQwMjk=
https://www.airbnb.fr/rooms/689551651296704336;Chez Jostel - Chambre 6 - Au pied de la Sa么ne - Appartements  louer  Genay, Auvergne-Rh么ne-Alpes, France - Airbnb;45.89199;4.80871;Romain;RGVtYW5kVXNlcjoxNzY5MDQwMjk=
https://www.airbnb.fr/rooms/689582176569825164;Chez Jostel -Chambre 1- Au pied de la Sa么ne - Appartements  louer  Genay, Auvergne-Rh么ne-Alpes, France - Airbnb;45.89369;4.80906;Romain;RGVtYW5kVXNlcjoxNzY5MDQwMjk=
https://www.airbnb.fr/rooms/1096249540909863960;Bienvenue  Brotteaux - Appartements  louer  Lyon, Auvergne-Rh么ne-Alpes, France - Airbnb;45.7647;4.8562;Lina;RGVtYW5kVXNlcjo1MzIxNzY0MjY=
https://www.airbnb.fr/rooms/1033920607366468080;Welcome to Bourse du Travail - Appartements  louer  Lyon, Auvergne-Rh么ne-Alpes, France - Airbnb;45.7573;4.8476;Lina;RGVtYW5kVXNlcjo1MzIxNzY0MjY=
https://www.airbnb.fr/rooms/1033087740890771366;Welcome To H么tel De Ville - Appartements  louer  Lyon, Auvergne-Rh么ne-Alpes, France - Airbnb;45.766;4.8328;Lina;RGVtYW5kVXNlcjo1MzIxNzY0MjY=
https://www.airbnb.fr/rooms/639664644031534419;Time Capsule - Lyon Caluire - Appartements  louer  Caluire-et-Cuire, Auvergne-Rh么ne-Alpes, France - Airbnb;45.78973;4.8517;Conciergerie Des Canuts;RGVtYW5kVXNlcjo0MzYxMTkyOTc=
https://www.airbnb.fr/rooms/1033830132270008942;Bienvenue  Bellecour - Appartements  louer  Lyon, Auvergne-Rh么ne-Alpes, France - Airbnb;45.7597;4.8342;Lina;RGVtYW5kVXNlcjo1MzIxNzY0MjY=
https://www.airbnb.fr/rooms/1078259137437322075;Bienvenue  Sans Soucis - Appartements  louer  Lyon, Auvergne-Rh么ne-Alpes, France - Airbnb;45.7474;4.8581;Lina;RGVtYW5kVXNlcjo1MzIxNzY0MjY=
https://www.airbnb.fr/rooms/973607345298350860;T2 Calme, parc technologique, 15 min Eurexpo - Appartements  louer  Saint-Priest, Auvergne-Rh么ne-Alpes, France - Airbnb;45.70469993538761;4.916085190149524;Maryline;RGVtYW5kVXNlcjo1MzU0Mzk2NTc=
https://www.airbnb.fr/rooms/1032519950465891645;Bienvenue  Gratte Ciel - Appartements  louer  Villeurbanne, Auvergne-Rh么ne-Alpes, France - Airbnb;45.7674;4.8748;Lina;RGVtYW5kVXNlcjo1MzIxNzY0MjY=
https://www.airbnb.fr/rooms/1004817573008282658;Bienvenue  Part Dieu - Appartements  louer  Lyon, Auvergne-Rh么ne-Alpes, France - Airbnb;45.7537;4.8527;Lina;RGVtYW5kVXNlcjo1MzIxNzY0MjY=
https://www.airbnb.fr/rooms/1055670420648968047;Bienvenue  Charpennes - Appartements  louer  Villeurbanne, Auvergne-Rh么ne-Alpes, France - Airbnb;45.77;4.8659;Lina;RGVtYW5kVXNlcjo1MzIxNzY0MjY=
https://www.airbnb.fr/rooms/1002805476148253409;Bienvenue  Charpennes - Appartements  louer  Villeurbanne, Auvergne-Rh么ne-Alpes, France - Airbnb;45.772271920199216;4.863596260940554;Lina;RGVtYW5kVXNlcjo1MzIxNzY0MjY=
https://www.airbnb.fr/rooms/1070243653788628673;Studio Lyon 8 - Appartements  louer  V茅nissieux, Auvergne-Rh么ne-Alpes, France - Airbnb;45.7284;4.8544;Cyril;RGVtYW5kVXNlcjozMDc1NDU5NQ==
https://www.airbnb.fr/rooms/979046195660321039;Le St Apollinaire n掳2-Ma Cabotte - Appartements  louer  Meximieux, Auvergne-Rh么ne-Alpes, France - Airbnb;45.90415439937504;5.1925168209256105;Fanny;RGVtYW5kVXNlcjo0MzAwNjc4ODM=
https://www.airbnb.fr/rooms/582994724225052673;G卯te Genilac, 3 pi猫ces, 3 pers. - Cottages  louer  Genilac, Auvergne-Rh么ne-Alpes, France - Airbnb;45.525;4.5722;Poplidays;RGVtYW5kVXNlcjoxMzAwMDU0ODc=
https://www.airbnb.fr/rooms/1032669564158552804;Bienvenue  la gare Lyon Part-D - Appartements  louer  Lyon, Auvergne-Rh么ne-Alpes, France - Airbnb;45.7564;4.8637;Lina;RGVtYW5kVXNlcjo1MzIxNzY0MjY=
https://www.airbnb.fr/rooms/1109553376267664724;Welcome To H么tel de Ville - Appartements  louer  Lyon, Auvergne-Rh么ne-Alpes, France - Airbnb;45.766;4.8328;Lina;RGVtYW5kVXNlcjo1MzIxNzY0MjY=
https://www.airbnb.fr/rooms/1101962484101818873;Bienvenue  Bellecour - Appartements  louer  Lyon, Auvergne-Rh么ne-Alpes, France - Airbnb;45.7597;4.8342;Lina;RGVtYW5kVXNlcjo1MzIxNzY0MjY=
https://www.airbnb.fr/rooms/1032533097152802019;Welcome To H么tel De Ville - Appartements  louer  Lyon, Auvergne-Rh么ne-Alpes, France - Airbnb;45.7689;4.831;Lina;RGVtYW5kVXNlcjo1MzIxNzY0MjY=
https://www.airbnb.fr/rooms/1032542104969061537;Bienvenue  Part Dieu - Appartements  louer  Villeurbanne, Auvergne-Rh么ne-Alpes, France - Airbnb;45.7674;4.8748;Lina;RGVtYW5kVXNlcjo1MzIxNzY0MjY=
https://www.airbnb.fr/rooms/1073013646852882535;Bienvenue au Vieux Lyon - Appartements  louer  Lyon, Auvergne-Rh么ne-Alpes, France - Airbnb;45.7651;4.8279;Lina;RGVtYW5kVXNlcjo1MzIxNzY0MjY=
https://www.airbnb.fr/rooms/974530345836825472;Bienvenue  Charpennes - Appartements  louer  Villeurbanne, Auvergne-Rh么ne-Alpes, France - Airbnb;45.77;4.8659;Lina;RGVtYW5kVXNlcjo1MzIxNzY0MjY=
https://www.airbnb.fr/rooms/816555295794788912;Le Bertholey - 4 pers - Oullins - Appartements  louer  Oullins, Auvergne-Rh么ne-Alpes, France - Airbnb;45.7171;4.809;David;RGVtYW5kVXNlcjoyMjYyMTY5MjI=
https://www.airbnb.fr/rooms/972920645570581882;Appartement de 22m2 Au coeur De Lyon - Appartements  louer  Lyon, Auvergne-Rh么ne-Alpes, France - Airbnb;45.76157;4.84268;Riadh;RGVtYW5kVXNlcjo1MzU0MTQwNjY=
https://www.airbnb.fr/rooms/51053277;Le Petit Prince- Studio cosy 2 pers -m茅tro Valmy - Appartements  louer  Lyon, Auvergne-Rh么ne-Alpes, France - Airbnb;45.77504;4.8025;David;RGVtYW5kVXNlcjoyMjYyMTY5MjI=
https://www.airbnb.fr/rooms/49896382;Le Petit Moselle- m茅tro Mermoz-Parc Parilly - Appartements  louer  Lyon, Auvergne-Rh么ne-Alpes, France - Airbnb;45.7302;4.88085;David;RGVtYW5kVXNlcjoyMjYyMTY5MjI=
https://www.airbnb.fr/rooms/877322364543285718;Moonrise 2 - Maisons  louer  Sourcieux-les-Mines, Auvergne-Rh么ne-Alpes, France - Airbnb;45.79245;4.62108;Yann;RGVtYW5kVXNlcjoxOTAxMzI2NjI=
https://www.airbnb.fr/rooms/977569977380148635;Le St Apollinaire n掳3 - Ma Cabotte - Appartements  louer  Meximieux, Auvergne-Rh么ne-Alpes, France - Airbnb;45.90540532123354;5.190329458336208;Fanny;RGVtYW5kVXNlcjo0MzAwNjc4ODM=
https://www.airbnb.fr/rooms/929416173318797765;Le Petit Poizat - studio cosy Villeurbanne - Appartements  louer  Villeurbanne, Auvergne-Rh么ne-Alpes, France - Airbnb;45.76015;4.89227;David;RGVtYW5kVXNlcjoyMjYyMTY5MjI=
https://www.airbnb.fr/rooms/899026406051613097;Le Gier - Chambre 2 personnes - - Appartements  louer  Dargoire, Auvergne-Rh么ne-Alpes, France - Airbnb;45.55619;4.68432;Yannis;RGVtYW5kVXNlcjo1MDYzMDUyMTQ=
https://www.airbnb.fr/rooms/1015671942545744855;Bienvenue  Garibaldi - Appartements  louer  Lyon, Auvergne-Rh么ne-Alpes, France - Airbnb;45.7498;4.8536;Lina;RGVtYW5kVXNlcjo1MzIxNzY0MjY=
https://www.airbnb.fr/rooms/1070878838361052265;Bienvenue  Foch - Appartements  louer  Lyon, Auvergne-Rh么ne-Alpes, France - Airbnb;45.7669;4.843;Lina;RGVtYW5kVXNlcjo1MzIxNzY0MjY=
https://www.airbnb.fr/rooms/1033168620599926034;Bienvenue  Berges Du Rh么ne - Appartements  louer  Lyon, Auvergne-Rh么ne-Alpes, France - Airbnb;45.7574;4.8417;Lina;RGVtYW5kVXNlcjo1MzIxNzY0MjY=
https://www.airbnb.fr/rooms/1036124127809486959;Bienvenue  Foch - Appartements  louer  Lyon, Auvergne-Rh么ne-Alpes, France - Airbnb;45.7668;4.8429;Lina;RGVtYW5kVXNlcjo1MzIxNzY0MjY=
https://www.airbnb.fr/rooms/1091889523838853000;Bienvenue  la Gare Lyon Part Dieu - Appartements  louer  Lyon, Auvergne-Rh么ne-Alpes, France - Airbnb;45.7566;4.8666;Lina;RGVtYW5kVXNlcjo1MzIxNzY0MjY=
https://www.airbnb.fr/rooms/1087593847192615490;Bienvenue  Gratte Ciel - Appartements  louer  Villeurbanne, Auvergne-Rh么ne-Alpes, France - Airbnb;45.7659;4.8769;Lina;RGVtYW5kVXNlcjo1MzIxNzY0MjY=
https://www.airbnb.fr/rooms/1106361086841250268;Bienvenue  Part Dieu - Appartements  louer  Lyon, Auvergne-Rh么ne-Alpes, France - Airbnb;45.7636;4.8693;Lina;RGVtYW5kVXNlcjo1MzIxNzY0MjY=
https://www.airbnb.fr/rooms/1032568457362411991;Welcome To H么tel De Ville - Appartements  louer  Lyon, Auvergne-Rh么ne-Alpes, France - Airbnb;45.769;4.8286;Lina;RGVtYW5kVXNlcjo1MzIxNzY0MjY=
https://www.airbnb.fr/rooms/1021019669601030819;Bienvenue  Brotteaux - Appartements  louer  Lyon, Auvergne-Rh么ne-Alpes, France - Airbnb;45.7691;4.862;Lina;RGVtYW5kVXNlcjo1MzIxNzY0MjY=
https://www.airbnb.fr/rooms/904050396303666496;Magnifique appartement Terrasse/Nature Lyon/Tassin - Appartements  louer  Tassin-la-Demi-Lune, Auvergne-Rh么ne-Alpes, France - Airbnb;45.75731;4.78474;Marc;RGVtYW5kVXNlcjo2MzMwMzIyMw==
https://www.airbnb.fr/rooms/1033110960998714532;Bienvenue  Bellecour - Appartements  louer  Lyon, Auvergne-Rh么ne-Alpes, France - Airbnb;45.7536;4.8264;Lina;RGVtYW5kVXNlcjo1MzIxNzY0MjY=
https://www.airbnb.fr/rooms/1085442859609018600;Bienvenue  Montplaisir - Appartements  louer  Lyon, Auvergne-Rh么ne-Alpes, France - Airbnb;45.7402;4.8638;Lina;RGVtYW5kVXNlcjo1MzIxNzY0MjY=
https://www.airbnb.fr/rooms/1104853568126352068;Bienvenue  Vaise - Appartements  louer  Lyon, Auvergne-Rh么ne-Alpes, France - Airbnb;45.7742;4.8082;Lina;RGVtYW5kVXNlcjo1MzIxNzY0MjY=
https://www.airbnb.fr/rooms/1049318174158174426;Studio superbe, parking gratuit - Appartements  louer  Tassin-la-Demi-Lune, Auvergne-Rh么ne-Alpes, France - Airbnb;45.7588;4.7728;Fabien;RGVtYW5kVXNlcjo1MjA3NzAwMjE=
https://www.airbnb.fr/rooms/1107228848887782317;Dify Sa么ne - Vieux Lyon - Appartements  louer  Lyon, Auvergne-Rh么ne-Alpes, France - Airbnb;45.75285;4.82113;Nicolas Et Anne;RGVtYW5kVXNlcjo4MDY3NTM2
https://www.airbnb.fr/rooms/30494624;Studio neuf climatis茅, Saxe Gambetta, tr猫s central - Appartements  louer  Lyon, Auvergne-Rh么ne-Alpes, France - Airbnb;45.75351;4.84613;Axel;RGVtYW5kVXNlcjoyMjQxMjY1MA==
https://www.airbnb.fr/rooms/1075231474983893968;Dify Rue des Docks - Vaise - Appartements  louer  Lyon, Auvergne-Rh么ne-Alpes, France - Airbnb;45.78994836553825;4.813188220104618;Tiphaine & Anne;RGVtYW5kVXNlcjo1MDc0NzIzMzk=
https://www.airbnb.fr/rooms/985386006944799756;Bienvenue  Bellecour - Appartements  louer  Lyon, Auvergne-Rh么ne-Alpes, France - Airbnb;45.7535;4.8268;Lina;RGVtYW5kVXNlcjo1MzIxNzY0MjY=
https://www.airbnb.fr/rooms/1036168893903242701;Bienvenue  Garibaldi - Appartements  louer  Lyon, Auvergne-Rh么ne-Alpes, France - Airbnb;45.7555;4.8518;Lina;RGVtYW5kVXNlcjo1MzIxNzY0MjY=
https://www.airbnb.fr/rooms/34270459;MEMORABLEPLACE- Nid du Parc - Parfait 1 personne - Appartements  louer  Lyon, France - Airbnb;45.77291;4.85039;Memorable;RGVtYW5kVXNlcjo0MTQ0NzYwMDI=
https://www.airbnb.fr/rooms/54284219;Le Cosy du Gier - Spacieux et Chaleureux - Appartements  louer  Rive-de-Gier, Auvergne-Rh么ne-Alpes, France - Airbnb;45.52601;4.61377;Ga茅tan;RGVtYW5kVXNlcjo2NjY4MDI4Nw==
https://www.airbnb.fr/rooms/1096968022309231792;Bienvenue  Que Du Rh么ne - Appartements  louer  Lyon, Auvergne-Rh么ne-Alpes, France - Airbnb;45.7553;4.8413;Lina;RGVtYW5kVXNlcjo1MzIxNzY0MjY=
https://www.airbnb.fr/rooms/1025175092882770235;Bienvenue  Gare-Dieu - Appartements  louer  Lyon, Auvergne-Rh么ne-Alpes, France - Airbnb;45.7643;4.8672;Lina;RGVtYW5kVXNlcjo1MzIxNzY0MjY=
https://www.airbnb.fr/rooms/894820804547299665;Charmant Studio Proche De Jean Mac茅 - Appartements  louer  Lyon, Auvergne-Rh么ne-Alpes, France - Airbnb;45.74227;4.83825;Marie;RGVtYW5kVXNlcjo1MTU1MTQ0NzM=
https://www.airbnb.fr/rooms/565667561204087957;Le Petit Hector -studio cosy avec parking -Debourg - Appartements  louer  Lyon, Auvergne-Rh么ne-Alpes, France - Airbnb;45.73539;4.83729;David;RGVtYW5kVXNlcjoyMjYyMTY5MjI=
https://www.airbnb.fr/rooms/633808723654286899;Le petit Million- joli studio r茅nov茅-Flachet - Appartements  louer  Villeurbanne, Auvergne-Rh么ne-Alpes, France - Airbnb;45.76618;4.89352;David;RGVtYW5kVXNlcjoyMjYyMTY5MjI=
https://www.airbnb.fr/rooms/48422329;R茅tro chic au coeur de Villeurbanne - Appartements  louer  Villeurbanne, Auvergne-Rh么ne-Alpes, France - Airbnb;45.76251;4.87486;Guillaume;RGVtYW5kVXNlcjoyMjEyMTg1OTY=
https://www.airbnb.fr/rooms/762027214108420409;La Maison Charpennes-appartement For锚t 2 pers - Appartements  louer  Villeurbanne, Auvergne-Rh么ne-Alpes, France - Airbnb;45.76924;4.8655;David;RGVtYW5kVXNlcjoyMjYyMTY5MjI=
https://www.airbnb.fr/rooms/962951358579186338;Bienvenue  Gerland - Appartements  louer  Lyon, Auvergne-Rh么ne-Alpes, France - Airbnb;45.7324;4.8389;Lina;RGVtYW5kVXNlcjo1MzIxNzY0MjY=
https://www.airbnb.fr/rooms/1079603682513930015;Paul B - Vert - petit studio confortable gare Part-Dieu - Appartements  louer  Lyon, Auvergne-Rh么ne-Alpes, France - Airbnb;45.756291898072114;4.8677184153185244;Romain;RGVtYW5kVXNlcjoxNzY5MDQwMjk=
https://www.airbnb.fr/rooms/912078240400499830;Le Paret studio 2 personnes Gratte Ciel - Appartements  louer  Villeurbanne, Auvergne-Rh么ne-Alpes, France - Airbnb;45.77338;4.884;David;RGVtYW5kVXNlcjoyMjYyMTY5MjI=
https://www.airbnb.fr/rooms/722173274881579966;Le Petit Bonald- studio Universit茅s Lyon 2 et 3 - Appartements  louer  Lyon, Auvergne-Rh么ne-Alpes, France - Airbnb;45.75417;4.84047;David;RGVtYW5kVXNlcjoyMjYyMTY5MjI=
https://www.airbnb.fr/rooms/53946598;T2 Villeurbanne  - Appartements  louer  Villeurbanne, Auvergne-Rh么ne-Alpes, France - Airbnb;45.76116;4.89543;Fabien;RGVtYW5kVXNlcjo1MjA3NzAwMjE=
https://www.airbnb.fr/rooms/53001099;锔KASA RETRO锔 Confortable - Calme- Tout 茅quip茅 - Appartements  louer  Saint-Martin-la-Plaine, Auvergne-Rh么ne-Alpes, France - Airbnb;45.53871;4.61509;Audrey;RGVtYW5kVXNlcjo0Mjg0ODgzNTg=
https://www.airbnb.fr/rooms/1068019192052109698;Cozy T2 Chemin茅e, Metro Flachet - Appartements  louer  Villeurbanne, Auvergne-Rh么ne-Alpes, France - Airbnb;45.7698706527041;4.889467123610086;Mouaouia;RGVtYW5kVXNlcjo1NTU2MzA1NTE=
https://www.airbnb.fr/rooms/767813979940976262;Chez Florence- cosy 2 pers-m茅tro Grange Blanche - Appartements  louer  Lyon, Auvergne-Rh么ne-Alpes, France - Airbnb;45.7465;4.8802;David;RGVtYW5kVXNlcjoyMjYyMTY5MjI=
https://www.airbnb.fr/rooms/812741556518264635;Chez Antoine cosy 2 pers Part dieu - Appartements  louer  Lyon, Auvergne-Rh么ne-Alpes, France - Airbnb;45.75900945318661;4.864669867919865;David;RGVtYW5kVXNlcjoyMjYyMTY5MjI=
https://www.airbnb.fr/rooms/915038678719355331;Le Petit Pierre-Cosy 2 pers-Terreaux Croix Rousse - Appartements  louer  Lyon, Auvergne-Rh么ne-Alpes, France - Airbnb;45.7704;4.8275;David;RGVtYW5kVXNlcjoyMjYyMTY5MjI=
https://www.airbnb.fr/rooms/877452662623444361;Dify Petit Dupont - Quartier Croix Rousse - Appartements  louer  Lyon, Auvergne-Rh么ne-Alpes, France - Airbnb;45.77100300297521;4.821311874965287;Tiphaine & Anne;RGVtYW5kVXNlcjo1MDc0NzIzMzk=
https://www.airbnb.fr/rooms/34764613;Studio moderne au centre de Lyon - Appartements  louer  Lyon, France - Airbnb;45.75337;4.84151;Welkeys;RGVtYW5kVXNlcjoxMjU3OTc0OTg=
https://www.airbnb.fr/rooms/1046332273928377373;Appartement Charmant, stationnement gratuit - Appartements  louer  Vaulx-en-Velin, Auvergne-Rh么ne-Alpes, France - Airbnb;45.7776165666766;4.923161011999216;Fabien;RGVtYW5kVXNlcjo1MjA3NzAwMjE=
https://www.airbnb.fr/rooms/805701742861367735;Le petit Emile studio neuf 2 pers Oullins - Appartements  louer  Oullins, Auvergne-Rh么ne-Alpes, France - Airbnb;45.7215;4.7978;David;RGVtYW5kVXNlcjoyMjYyMTY5MjI=
https://www.airbnb.fr/rooms/634543394519840343;Le George Gouy-Joli studio- Debourg Gerland - Appartements  louer  Lyon, Auvergne-Rh么ne-Alpes, France - Airbnb;45.73327;4.8375;David;RGVtYW5kVXNlcjoyMjYyMTY5MjI=
https://www.airbnb.fr/rooms/1094109203630573097;Studio de charme avec vue, au calme  1/2 h de Lyon - Appartements  louer  Soucieu-en-Jarrest, Auvergne-Rh么ne-Alpes, France - Airbnb;45.70006525793375;4.706089927573968;Delphine;RGVtYW5kVXNlcjo2MTU4NTQyOQ==
https://www.airbnb.fr/rooms/1114933468347087885;Latelier dEveux - Appartements  louer  veux, Auvergne-Rh么ne-Alpes, France - Airbnb;45.827148349137914;4.621066184146541;Amandine;RGVtYW5kVXNlcjoyNzYxODg1ODI=
https://www.airbnb.fr/rooms/689552403748475969;Chez Jostel - Chambre 4 - proche de la Sa么ne - Appartements  louer  Genay, Auvergne-Rh么ne-Alpes, France - Airbnb;45.8916;4.81097;Romain;RGVtYW5kVXNlcjoxNzY5MDQwMjk=
https://www.airbnb.fr/rooms/765047364189169179;Chambre calme av parking Jardin - Appartements en r茅sidence  louer  Saint-Genis-Laval, Auvergne-Rh么ne-Alpes, France - Airbnb;45.70721;4.79856;Patricia;RGVtYW5kVXNlcjoyNTE2ODQwMzY=
https://www.airbnb.fr/rooms/991224006963671514;Studio avec terrasse Lyon Part-Dieu - 2 personnes - Appartements  louer  Lyon, Auvergne-Rh么ne-Alpes, France - Airbnb;45.7582;4.8674;WeHost;RGVtYW5kVXNlcjozNjk4MjY0OTE=
https://www.airbnb.fr/rooms/1110856356207443325;Dify Tuileries - Valmy - Appartements  louer  Lyon, Auvergne-Rh么ne-Alpes, France - Airbnb;45.77218;4.80541;Tiphaine & Anne;RGVtYW5kVXNlcjo1MDc0NzIzMzk=
https://www.airbnb.fr/rooms/1091867713482184362;Appartement avec mezzanine proche de la Gare - Appartements  louer  Lyon, Auvergne-Rh么ne-Alpes, France - Airbnb;45.76532921654883;4.864784197066376;Guillaume;RGVtYW5kVXNlcjo1NjIxNTI2OTY=
https://www.airbnb.fr/rooms/696981154284735927;Dify Lucky - 10 min centre de Lyon - Appartements  louer  Villeurbanne, Auvergne-Rh么ne-Alpes, France - Airbnb;45.7699;4.86939;Tiphaine & Anne;RGVtYW5kVXNlcjo1MDc0NzIzMzk=
https://www.airbnb.fr/rooms/39364631;Le Mondrian 1 ch Wifi Arriv茅e 24h/24 - Appartements en r茅sidence  louer  Villeurbanne, Auvergne-Rh么ne-Alpes, France - Airbnb;45.768332953435134;4.874615326376586;Guillaume;RGVtYW5kVXNlcjoyMjEyMTg1OTY=
https://www.airbnb.fr/rooms/980211276199212550;L'Alth茅a I - Appartements  louer  Bron, Auvergne-Rh么ne-Alpes, France - Airbnb;45.75103;4.90392;Bruno Jean;RGVtYW5kVXNlcjoxODc2NjY0Nzg=
https://www.airbnb.fr/rooms/891805490423095778;bnbg么nes - Le Rilliard - Spacieux - Cosy - - Appartements  louer  Rillieux-la-Pape, Auvergne-Rh么ne-Alpes, France - Airbnb;45.807;4.8903;Bnbg么nes;RGVtYW5kVXNlcjo0MTIwNDkzMTA=
https://www.airbnb.fr/rooms/797703405983306344;Le petit Delore - Studio 2 personnes - Lyon 8 - Appartements  louer  Lyon, Auvergne-Rh么ne-Alpes, France - Airbnb;45.735;4.8589;David;RGVtYW5kVXNlcjoyMjYyMTY5MjI=
https://www.airbnb.fr/rooms/26619928;Jean Mac茅 Studio Tout Confort Proche M茅tro - Appartements  louer  Lyon, Auvergne-Rh么ne-Alpes, France - Airbnb;45.7419;4.8401;Sebastien;RGVtYW5kVXNlcjozMzE4NDAyMA==
https://www.airbnb.fr/rooms/1049375376100944216;VIP Vienne Centre Qg - Appartements  louer  Vienne, Auvergne-Rh么ne-Alpes, France - Airbnb;45.5124;4.8626;Fabien;RGVtYW5kVXNlcjo1MjA3NzAwMjE=
https://www.airbnb.fr/rooms/980218339069698296;L'Alth茅a II - Appartements  louer  Bron, Auvergne-Rh么ne-Alpes, France - Airbnb;45.75093297850318;4.902126608425509;Bruno Jean;RGVtYW5kVXNlcjoxODc2NjY0Nzg=
https://www.airbnb.fr/rooms/43403661;Charmant petit appartement   vasion cocooning  - Appartements  louer  Irigny, Auvergne-Rh么ne-Alpes, France - Airbnb;45.67344;4.81668;Maryline;RGVtYW5kVXNlcjo3Mjc0NDk0MQ==
https://www.airbnb.fr/rooms/1034597608632134672;Bienvenue  Vaise - Appartements  louer  Lyon, Auvergne-Rh么ne-Alpes, France - Airbnb;45.7777;4.8022;Lina;RGVtYW5kVXNlcjo1MzIxNzY0MjY=
https://www.airbnb.fr/rooms/1115218085235446509;Appartement Cosy Lyon 7 - Appartements  louer  Lyon, Auvergne-Rh么ne-Alpes, France - Airbnb;45.733208566425695;4.8396328168906955;Josselin;RGVtYW5kVXNlcjo1NDk3NDg0MTQ=
https://www.airbnb.fr/rooms/1032607403432074487;Bienvenue  Gerland - Appartements  louer  Lyon, Auvergne-Rh么ne-Alpes, France - Airbnb;45.7379;4.8397;Lina;RGVtYW5kVXNlcjo1MzIxNzY0MjY=
https://www.airbnb.fr/rooms/36927956;T1bis 猸锔 30mn Lyon Centre acc猫s A7 et p茅riph茅rique - Appartements  louer  Saint-Fons, Auvergne-Rh么ne-Alpes, France - Airbnb;45.70686;4.85728;Michel Et Marie-Laure;RGVtYW5kVXNlcjoxMzM0OTMwOTQ=
https://www.airbnb.fr/rooms/37110115;"Le ""Sans-Souci"" - Appartements  louer  Lyon, Auvergne-Rh么ne-Alpes, France - Airbnb";45.74913;4.86592;GuestReady;RGVtYW5kVXNlcjo0MDIxOTEzMTE=
https://www.airbnb.fr/rooms/1033972488179855262;Bienvenue  Grange Blanche - Appartements  louer  Lyon, Auvergne-Rh么ne-Alpes, France - Airbnb;45.7378;4.8677;Lina;RGVtYW5kVXNlcjo1MzIxNzY0MjY=
https://www.airbnb.fr/rooms/49626779;Hamac Suites- Monplaisir studio tout 茅quip茅 -2pers - Appartements  louer  Lyon, Auvergne-Rh么ne-Alpes, France - Airbnb;45.74648;4.86364;S茅bastien;RGVtYW5kVXNlcjozMTk1MTI3MDI=
https://www.airbnb.fr/rooms/29203519;Esprit vintage - Appartements  louer  Lyon, Rh么ne, France - Airbnb;45.73967;4.86281;Kevin;RGVtYW5kVXNlcjoxMzY5MTc1Mjk=
https://www.airbnb.fr/rooms/1095370681191940482;Croix Rousse-Duplex de charme - Appartements  louer  Lyon, Auvergne-Rh么ne-Alpes, France - Airbnb;45.7736;4.8283;Nestia;RGVtYW5kVXNlcjo1MTg3MTY0NDQ=
https://www.airbnb.fr/rooms/803357821180686037;Le petit Louis Fort - Studio cosy-Gratte Ciel - Appartements  louer  Villeurbanne, Auvergne-Rh么ne-Alpes, France - Airbnb;45.774;4.8844;David;RGVtYW5kVXNlcjoyMjYyMTY5MjI=
https://www.airbnb.fr/rooms/933851028563775068;Le Lys en Soie - T2 bis - Appartements  louer  Villeurbanne, Auvergne-Rh么ne-Alpes, France - Airbnb;45.75346;4.88635;Bruno Jean;RGVtYW5kVXNlcjoxODc2NjY0Nzg=
https://www.airbnb.fr/rooms/767197195290789182;T2 -R茅nov茅 -Parking gratuit- Suite 1 - Appartements  louer  Grigny, Auvergne-Rh么ne-Alpes, France - Airbnb;45.60937;4.78099;Fabien;RGVtYW5kVXNlcjo1MjA3NzAwMjE=
https://www.airbnb.fr/rooms/603400175199379560;Duplex centre-ville Vienne proche gare cath茅drale - Appartements  louer  Vienne, Auvergne-Rh么ne-Alpes, France - Airbnb;45.5236;4.8724;Emile;RGVtYW5kVXNlcjoxNDIzMjU2Mw==
https://www.airbnb.fr/rooms/1107376063570483188;Charmant studio proche du m茅tro - Appartements  louer  Lyon, Auvergne-Rh么ne-Alpes, France - Airbnb;45.7402001796936;4.879619521519154;Josselin;RGVtYW5kVXNlcjo1NDk3NDg0MTQ=
https://www.airbnb.fr/rooms/1077448291747579607;Cozy & 茅l茅gant - TV sat&VOD - Appartements  louer  Villeurbanne, Auvergne-Rh么ne-Alpes, France - Airbnb;45.76699924016815;4.8677261845458295;Christophe;RGVtYW5kVXNlcjo1NTg3MDc4MzI=
https://www.airbnb.fr/rooms/822978460949182665;Studio Capponi-2 pers-Terreaux-Croix rousse - Appartements  louer  Lyon, Auvergne-Rh么ne-Alpes, France - Airbnb;45.771;4.8324;David;RGVtYW5kVXNlcjoyMjYyMTY5MjI=
https://www.airbnb.fr/rooms/663650548296906803;Studio Typique Au Coeur De Lyon - Appartements  louer  Lyon, Auvergne-Rh么ne-Alpes, France - Airbnb;45.76769;4.83663;Luc;RGVtYW5kVXNlcjo0Njc1OTYwMjI=
https://www.airbnb.fr/rooms/47840932;Joli 2 pers- Croix Rousse-Chartreux - Appartements  louer  Lyon, Auvergne-Rh么ne-Alpes, France - Airbnb;45.77284;4.82292;David;RGVtYW5kVXNlcjoyMjYyMTY5MjI=
https://www.airbnb.fr/rooms/729415169364151791;Le petit Gratte Ciel cosy 3 pers Villeurbanne - Appartements  louer  Villeurbanne, Auvergne-Rh么ne-Alpes, France - Airbnb;45.7734;4.8812;David;RGVtYW5kVXNlcjoyMjYyMTY5MjI=
https://www.airbnb.fr/rooms/857858295056973661;Studio Guimet avec terrasse-Oullins centre-Lyon - Appartements  louer  Oullins, Auvergne-Rh么ne-Alpes, France - Airbnb;45.7143;4.8058;David;RGVtYW5kVXNlcjoyMjYyMTY5MjI=
https://www.airbnb.fr/rooms/47165919;Studio cosy Valmy- Vaise-Lyon centre - Appartements  louer  Lyon, Auvergne-Rh么ne-Alpes, France - Airbnb;45.77539;4.80737;David;RGVtYW5kVXNlcjoyMjYyMTY5MjI=
https://www.airbnb.fr/rooms/697000023787888336;BonEndroit By Audrey & Thomas - Appartements en r茅sidence  louer  Givors, Auvergne-Rh么ne-Alpes, France - Airbnb;45.56991;4.79263;Audrey & Thomas;RGVtYW5kVXNlcjoxNDEzNTEyNg==
https://www.airbnb.fr/rooms/868665347727058099;Le Spacieux Caladois - Appartements  louer  Villefranche-sur-Sa么ne, Auvergne-Rh么ne-Alpes, France - Airbnb;45.98651;4.71524;Ga茅tan;RGVtYW5kVXNlcjo2NjY4MDI4Nw==
https://www.airbnb.fr/rooms/984734678771869500;Chez Geoffray 2 personnes m茅tro Gratte-Ciel - Appartements  louer  Villeurbanne, Auvergne-Rh么ne-Alpes, France - Airbnb;45.772658810699404;4.88054262887461;David;RGVtYW5kVXNlcjoyMjYyMTY5MjI=
https://www.airbnb.fr/rooms/910569377569147975;Moonrise 1 - Maisons  louer  Sourcieux-les-Mines, Auvergne-Rh么ne-Alpes, France - Airbnb;45.79261;4.61989;Yann;RGVtYW5kVXNlcjoxOTAxMzI2NjI=
https://www.airbnb.fr/rooms/861496409928191171;Van Life studio - Appartements  louer  L'Arbresle, Auvergne-Rh么ne-Alpes, France - Airbnb;45.83664;4.61521;Amandine;RGVtYW5kVXNlcjoyNzYxODg1ODI=
https://www.airbnb.fr/rooms/1052596876199143499;Le petit bois - Appartements  louer  L'Arbresle, Auvergne-Rh么ne-Alpes, France - Airbnb;45.8366;4.6201;Amandine;RGVtYW5kVXNlcjoyNzYxODg1ODI=
https://www.airbnb.fr/rooms/897577448790708660;Studio fonctionnel Lyon-Vaise-Saint Didier - Appartements  louer  Saint-Didier-au-Mont-d'Or, Auvergne-Rh么ne-Alpes, France - Airbnb;45.7893;4.8077;David;RGVtYW5kVXNlcjoyMjYyMTY5MjI=
https://www.airbnb.fr/rooms/1114295594928424667;G卯te de Saint Alban - Appartements  louer  Saint-Alban-de-Roche, Auvergne-Rh么ne-Alpes, France - Airbnb;45.59527744095324;5.225091380111409;Yann;RGVtYW5kVXNlcjoyMDQ4ODY2NzQ=
https://www.airbnb.fr/rooms/1036723072792483951;Appartement incroyable  La Grand-Croix avec cuisine - Appartements  louer  L'Horme, Auvergne-Rh么ne-Alpes, France - Airbnb;45.4946;4.5606;Novasol;RGVtYW5kVXNlcjoxMzc1MTA2ODI=
https://www.airbnb.fr/rooms/53885131;T3 - 3/4 personnes, draps et serviettes en option - Appartements  louer  Lorette, Auvergne-Rh么ne-Alpes, France - Airbnb;45.5123;4.5806;Laurent;RGVtYW5kVXNlcjoxMTk2NDcxNDk=
https://www.airbnb.fr/rooms/1117564007028460420;Studio Millon : proche Part-Dieu (10min) - Appartements  louer  Villeurbanne, Auvergne-Rh么ne-Alpes, France - Airbnb;45.7676;4.8667;Karl;RGVtYW5kVXNlcjoxNjc3MzI2ODQ=
https://www.airbnb.fr/rooms/745477053153211438;Le petit Colbert-Studio cosy-Croix Rousse - Appartements  louer  Lyon, Auvergne-Rh么ne-Alpes, France - Airbnb;45.77171;4.83415;David;RGVtYW5kVXNlcjoyMjYyMTY5MjI=
https://www.airbnb.fr/rooms/600969266400064201;Blue confort proche gare part Dieu - Appartements  louer  Villeurbanne, Au, France - Airbnb;45.76025;4.87516;Houleye;RGVtYW5kVXNlcjo0MTkwMTQ4MjM=
https://www.airbnb.fr/rooms/1070261536279230149;Appartement Dauphin茅 - Appartements  louer  Lyon, Auvergne-Rh么ne-Alpes, France - Airbnb;45.7535;4.8718;Loic;RGVtYW5kVXNlcjo1MTc2Mzc0NTM=
https://www.airbnb.fr/rooms/951347277326191442;Dify Jaboulay - Jean Mace - Appartements  louer  Lyon, Auvergne-Rh么ne-Alpes, France - Airbnb;45.74603;4.84493;Clothilde & Laurine;RGVtYW5kVXNlcjo1MDc2MTA1NTc=
https://www.airbnb.fr/rooms/1075641377189665233;Joli appartement 4 pers Gratte-Ciel 10 mn Lyon - Appartements  louer  Villeurbanne, Auvergne-Rh么ne-Alpes, France - Airbnb;45.766146197131185;4.884306155254515;Romain;RGVtYW5kVXNlcjoxNzY5MDQwMjk=
https://www.airbnb.fr/rooms/39903944;Le Cocon Parilly - Appartements en r茅sidence  louer  Lyon, Auvergne-Rh么ne-Alpes, France - Airbnb;45.72489;4.88427;Manon;RGVtYW5kVXNlcjo1Mjc2NDYwOQ==
https://www.airbnb.fr/rooms/46673848;Dify Stoppa - Parilly - Appartements  louer  V茅nissieux, Auvergne-Rh么ne-Alpes, France - Airbnb;45.72157;4.89246;Clothilde & Laurine;RGVtYW5kVXNlcjo1MDc2MTA1NTc=
https://www.airbnb.fr/rooms/1107024480697707904;Le Berliet studio cosy r茅nov茅 Maison de la danse - Appartements  louer  Lyon, Auvergne-Rh么ne-Alpes, France - Airbnb;45.7358702927774;4.859674319511383;David;RGVtYW5kVXNlcjoyMjYyMTY5MjI=
https://www.airbnb.fr/rooms/1102076876344900136;Charmant appartement 3 pers Perrache Confluence - Appartements  louer  Lyon, Auvergne-Rh么ne-Alpes, France - Airbnb;45.74174799820683;4.823947463045098;David;RGVtYW5kVXNlcjoyMjYyMTY5MjI=
https://www.airbnb.fr/rooms/1033264281968501543;Bienvenue  Gratte Ciel - Appartements  louer  Villeurbanne, Auvergne-Rh么ne-Alpes, France - Airbnb;45.7642;4.882;Lina;RGVtYW5kVXNlcjo1MzIxNzY0MjY=
https://www.airbnb.fr/rooms/918548085463866100;Studio Simon cosy 2 pers Sainte-Foy-l猫s-Lyon - Appartements  louer  Sainte-Foy-l猫s-Lyon, Auvergne-Rh么ne-Alpes, France - Airbnb;45.7367;4.8023;David;RGVtYW5kVXNlcjoyMjYyMTY5MjI=
https://www.airbnb.fr/rooms/1034668379403228338;Bienvenue  Villeurbanne - Appartements  louer  Villeurbanne, Auvergne-Rh么ne-Alpes, France - Airbnb;45.7796;4.8813;Lina;RGVtYW5kVXNlcjo1MzIxNzY0MjY=
https://www.airbnb.fr/rooms/29649950;Studio avec parking - Montchat/Hopitaux Est - Appartements  louer  Lyon, Rh么ne, France - Airbnb;45.75345;4.88847;Ludovic;RGVtYW5kVXNlcjozOTcyNjU2Nw==
https://www.airbnb.fr/rooms/1006298614665515024;Le Caladois - Appartements  louer  Villefranche-sur-Sa么ne, Auvergne-Rh么ne-Alpes, France - Airbnb;45.98176;4.71674;Gaelle;RGVtYW5kVXNlcjoxMjM2NDY4MA==
https://www.airbnb.fr/rooms/1051951051339806940;Studio Cosy de 16m2 - Appartements  louer  Lyon, Auvergne-Rh么ne-Alpes, France - Airbnb;45.7452;4.86274;G茅raldine;RGVtYW5kVXNlcjo1NTIxMDAzOTc=
https://www.airbnb.fr/rooms/998413089484059825;Joli Studio Champagne au Mont d'or - Appartements  louer  Champagne-au-Mont-d'Or, Auvergne-Rh么ne-Alpes, France - Airbnb;45.795138737162944;4.791001737013762;Marine;RGVtYW5kVXNlcjoxMTMxNzk2NDQ=
https://www.airbnb.fr/rooms/49186391;Le Montesquieu-茅l茅gant studio -5 min Bellecour - Appartements  louer  Lyon, Auvergne-Rh么ne-Alpes, France - Airbnb;45.75428;4.84157;David;RGVtYW5kVXNlcjoyMjYyMTY5MjI=
https://www.airbnb.fr/rooms/49978498;Le petit Bourbonnais - patio privatif- m茅tro Valmy - Appartements  louer  Lyon, Auvergne-Rh么ne-Alpes, France - Airbnb;45.77529;4.80285;David;RGVtYW5kVXNlcjoyMjYyMTY5MjI=
https://www.airbnb.fr/rooms/50872141;Les Tuileries - Appartement cosy 4pers - Valmy - Appartements  louer  Lyon, Auvergne-Rh么ne-Alpes, France - Airbnb;45.7726;4.80451;David;RGVtYW5kVXNlcjoyMjYyMTY5MjI=
https://www.airbnb.fr/rooms/807015397046330736;Le petit Vend么me charmant 2 pers Saxe Gambetta - Appartements  louer  Lyon, Auvergne-Rh么ne-Alpes, France - Airbnb;45.755;4.8477;David;RGVtYW5kVXNlcjoyMjYyMTY5MjI=
https://www.airbnb.fr/rooms/1033259141514454749;Bienvenue  Villeurbanne - Appartements  louer  Villeurbanne, Auvergne-Rh么ne-Alpes, France - Airbnb;45.7642;4.882;Lina;RGVtYW5kVXNlcjo1MzIxNzY0MjY=
https://www.airbnb.fr/rooms/29729358;Studio cosy Montchat/Hopitaux Est - Appartements  louer  Lyon, Rh么ne, France - Airbnb;45.75358;4.88832;Ludovic;RGVtYW5kVXNlcjozOTcyNjU2Nw==
https://www.airbnb.fr/rooms/49602910;Studio Amp猫re - Oullins centre- Lyon - Appartements  louer  Oullins, Auvergne-Rh么ne-Alpes, France - Airbnb;45.71526;4.80652;David;RGVtYW5kVXNlcjoyMjYyMTY5MjI=
https://www.airbnb.fr/rooms/1040238130158198995;Studio Neuf Pr猫s de Lyon - Appartements  louer  V茅nissieux, Auvergne-Rh么ne-Alpes, France - Airbnb;45.7237;4.8646;Fabien;RGVtYW5kVXNlcjo1MjA3NzAwMjE=
https://www.airbnb.fr/rooms/781705042435504542;Le petit D茅chant-cosy 2 pers r茅nov茅-La Mulati猫re - Appartements  louer  La Mulati猫re, Auvergne-Rh么ne-Alpes, France - Airbnb;45.7221;4.8117;David;RGVtYW5kVXNlcjoyMjYyMTY5MjI=
https://www.airbnb.fr/rooms/588176;Le g卯te Bleu, douillet et cocooning - Villas  louer  Yzeron, Rh么ne-Alpes, France - Airbnb;45.71538;4.59344;Julie Jeremy;RGVtYW5kVXNlcjoyNTgxNDM1
https://www.airbnb.fr/rooms/1049380494171537201;appartement T2 Villeurbanne - Appartements  louer  Villeurbanne, Auvergne-Rh么ne-Alpes, France - Airbnb;45.762;4.8946;Fabien;RGVtYW5kVXNlcjo1MjA3NzAwMjE=
https://www.airbnb.fr/rooms/559229336523437787;La Maison Gratte Ciel - Studio Chigaco - Jardin - Appartements  louer  Villeurbanne, Auvergne-Rh么ne-Alpes, France - Airbnb;45.774;4.8836;David;RGVtYW5kVXNlcjoyMjYyMTY5MjI=
https://www.airbnb.fr/rooms/1076602957661777365;Gite Chalet Loisirs Parc Pilat - Chalets  louer  Farnay, Auvergne-Rh么ne-Alpes, France - Airbnb;45.4889;4.596;Holidu;RGVtYW5kVXNlcjo1NTU0ODU1MTY=
https://www.airbnb.fr/rooms/971884414282113885;Maison Cosyli - Maisons  louer  Meyzieu, Auvergne-Rh么ne-Alpes, France - Airbnb;45.7793;4.9893;Delphine;RGVtYW5kVXNlcjo1MzM0NDkzMzI=
https://www.airbnb.fr/rooms/979614028567962199;G卯te Saint-Romain-en-Jarez, 3 pi猫ces, 4 pers. - Cottages  louer  Saint-Romain-en-Jarez, Auvergne-Rh么ne-Alpes, France - Airbnb;45.5561;4.5362;Agence Poplidays;RGVtYW5kVXNlcjoxMzMwNTkzOTM=
https://www.airbnb.fr/rooms/664995266722652185;Sun & Fun, calme et verdure, parking gratuit - Appartements  louer  Villeurbanne, Auvergne-Rh么ne-Alpes, France - Airbnb;45.76349;4.89071;Vincent;RGVtYW5kVXNlcjo0Njc5MjczOTk=
https://www.airbnb.fr/rooms/939615245032363175;Charmant studio face T锚te D'Or - Appartements  louer  Caluire-et-Cuire, Auvergne-Rh么ne-Alpes, France - Airbnb;45.7886;4.8529;Axel;RGVtYW5kVXNlcjoyMTkzOTM3NjE=
https://www.airbnb.fr/rooms/47778174;Dify City - Charpennes - Appartements  louer  Villeurbanne, Auvergne-Rh么ne-Alpes, France - Airbnb;45.77162;4.86607;Tiphaine & Anne;RGVtYW5kVXNlcjo1MDc0NzIzMzk=
https://www.airbnb.fr/rooms/1027299770485318980;Le petit gentleman - Appartements  louer  Vienne, Auvergne-Rh么ne-Alpes, France - Airbnb;45.52248872942181;4.875089793610284;Maxime;RGVtYW5kVXNlcjo0ODU2ODAxMDU=
https://www.airbnb.fr/rooms/1069546247906197499;Dify Bonald - Quai du Rh么ne - Appartements  louer  Lyon, Auvergne-Rh么ne-Alpes, France - Airbnb;45.75287;4.84082;Clothilde & Laurine;RGVtYW5kVXNlcjo1MDc2MTA1NTc=
https://www.airbnb.fr/rooms/1055496993157721352;appartement T2 Proche Lyon - Appartements  louer  Oullins, Auvergne-Rh么ne-Alpes, France - Airbnb;45.7147;4.8071;Fabien;RGVtYW5kVXNlcjo1MjA3NzAwMjE=
https://www.airbnb.fr/rooms/43403927;Studio climatis茅 A/C - hypercentre - Presqu'卯le - Appartements  louer  Lyon, Auvergne-Rh么ne-Alpes, France - Airbnb;45.76628;4.83577;Katty;RGVtYW5kVXNlcjozNTk1MDM5OQ==
https://www.airbnb.fr/rooms/49783724;La Maison Gratte Ciel-Appartement Madrid-Jardin - Appartements  louer  Villeurbanne, Auvergne-Rh么ne-Alpes, France - Airbnb;45.774;4.8836;David;RGVtYW5kVXNlcjoyMjYyMTY5MjI=
https://www.airbnb.fr/rooms/1102690735267101279;Dify Dugas Montbel - Presqu'卯le - Appartements  louer  Lyon, Auvergne-Rh么ne-Alpes, France - Airbnb;45.74586817090185;4.827127190913546;Clothilde & Laurine;RGVtYW5kVXNlcjo1MDc2MTA1NTc=
https://www.airbnb.fr/rooms/888887562314179582;Le petit Malot- charmant studio- Debourg - Appartements  louer  Lyon, Auvergne-Rh么ne-Alpes, France - Airbnb;45.7345;4.8376;David;RGVtYW5kVXNlcjoyMjYyMTY5MjI=
https://www.airbnb.fr/rooms/45418246;Le petit Jomard proche de Lyon - Appartements  louer  Oullins, Auvergne-Rh么ne-Alpes, France - Airbnb;45.71636;4.80006;Renaud;RGVtYW5kVXNlcjo1NTM2NjczNQ==
https://www.airbnb.fr/rooms/40073737;Studio moderne et lumineux proche de la Part-Dieu - Appartements  louer  Lyon, France - Airbnb;45.76563;4.85081;Welkeys;RGVtYW5kVXNlcjoxNTEwNzc2Mjk=
https://www.airbnb.fr/rooms/842012046867287756;GuestReady - Studio moderne proche Part-Dieu - Appartements  louer  Lyon, Auvergne-Rh么ne-Alpes, France - Airbnb;45.75647034682503;4.8678927395342955;Florent;RGVtYW5kVXNlcjo1MDQzMTg3NjA=
https://www.airbnb.fr/rooms/918561048073114485;Studio Marguerite cosy 2 pers Sainte-Foy-l猫s-Lyon - Appartements  louer  Sainte-Foy-l猫s-Lyon, Auvergne-Rh么ne-Alpes, France - Airbnb;45.7367;4.8023;David;RGVtYW5kVXNlcjoyMjYyMTY5MjI=
https://www.airbnb.fr/rooms/1044864342962238641;Charmant Studio Villeurbanne - Appartements  louer  Villeurbanne, Auvergne-Rh么ne-Alpes, France - Airbnb;45.7753;4.8688;Fabien;RGVtYW5kVXNlcjo1MjA3NzAwMjE=
https://www.airbnb.fr/rooms/45220223;L'appartement de la B芒tisse de Saint-Chamond - Appartements  louer  Saint-Chamond, Auvergne-Rh么ne-Alpes, France - Airbnb;45.47751;4.52283;Virginie;RGVtYW5kVXNlcjozNjUxMTQzMjc=
https://www.airbnb.fr/rooms/797687622416169795;Le petit Fontani猫res studio cosy Gratte Ciel - Appartements  louer  Villeurbanne, Auvergne-Rh么ne-Alpes, France - Airbnb;45.774;4.8844;David;RGVtYW5kVXNlcjoyMjYyMTY5MjI=
https://www.airbnb.fr/rooms/1091300061588048969;Dify Candle - Quartier Part-Dieu - Appartements  louer  Lyon, Auvergne-Rh么ne-Alpes, France - Airbnb;45.75593519942207;4.869345254851497;Clothilde & Laurine;RGVtYW5kVXNlcjo1MDc2MTA1NTc=
https://www.airbnb.fr/rooms/1102718785368452830;Welcome To H么tel de Ville - Appartements  louer  Lyon, Auvergne-Rh么ne-Alpes, France - Airbnb;45.766;4.8328;Lina;RGVtYW5kVXNlcjo1MzIxNzY0MjY=
https://www.airbnb.fr/rooms/29531693;Charmant T2  Berthelot - Appartements  louer  Lyon, Rh么ne, France - Airbnb;45.74153;4.85117;Ludovic;RGVtYW5kVXNlcjozOTcyNjU2Nw==
https://www.airbnb.fr/rooms/51677147;T2 en duplex tout 茅quip茅 aux portes de Lyon - Appartements  louer  La Mulati猫re, Auvergne-Rh么ne-Alpes, France - Airbnb;45.7248;4.8135;Michel Et Marie-Laure;RGVtYW5kVXNlcjoxMzM0OTMwOTQ=
https://www.airbnb.fr/rooms/803572664491652946;Dify Blanc Nature - Parilly - Appartements  louer  V茅nissieux, Auvergne-Rh么ne-Alpes, France - Airbnb;45.72005123976767;4.8921536799475565;Clothilde & Laurine;RGVtYW5kVXNlcjo1MDc2MTA1NTc=
https://www.airbnb.fr/rooms/616303415930634003;Le Petit Reinach -appartement cosy-Saxe-Gambetta - Appartements  louer  Lyon, Auvergne-Rh么ne-Alpes, France - Airbnb;45.74965;4.84374;David;RGVtYW5kVXNlcjoyMjYyMTY5MjI=
https://www.airbnb.fr/rooms/1107384612368414961;Studio coquet  200m de la Fac - Appartements  louer  Lyon, Auvergne-Rh么ne-Alpes, France - Airbnb;45.73879;4.87948;Josselin;RGVtYW5kVXNlcjo1NDk3NDg0MTQ=
https://www.airbnb.fr/rooms/938874518539038270;Le Gu茅rin cosy studio 2 pers T锚te d'Or - Appartements  louer  Villeurbanne, Auvergne-Rh么ne-Alpes, France - Airbnb;45.7788;4.8607;David;RGVtYW5kVXNlcjoyMjYyMTY5MjI=
https://www.airbnb.fr/rooms/802022404907369919;La loge Lyonnaise-Saxe Gambetta-Universit茅 - Appartements  louer  Lyon, Auvergne-Rh么ne-Alpes, France - Airbnb;45.7496;4.8441;David;RGVtYW5kVXNlcjoyMjYyMTY5MjI=
https://www.airbnb.fr/rooms/1107231693223023498;Dify Charme - Bord du Rh么ne - Appartements  louer  Lyon, Auvergne-Rh么ne-Alpes, France - Airbnb;45.75024421702885;4.840812303552537;Nicolas Et Anne;RGVtYW5kVXNlcjo4MDY3NTM2
https://www.airbnb.fr/rooms/696051906666480414;Dify Etienne Richerand - Part Dieu - Appartements  louer  Lyon, Auvergne-Rh么ne-Alpes, France - Airbnb;45.76099;4.86756;Tiphaine & Anne;RGVtYW5kVXNlcjo1MDc0NzIzMzk=
https://www.airbnb.fr/rooms/551826868681133450;MEMORABLEPLACE-LE Libert茅 - Joli studio Part-Dieu - Appartements  louer  Lyon, Auvergne-Rh么ne-Alpes, France - Airbnb;45.75893;4.84128;Romain;RGVtYW5kVXNlcjoxNzY5MDQwMjk=
https://www.airbnb.fr/rooms/49494113;Le Cocon De Paris - Appartements  louer  Lyon, Auvergne-Rh么ne-Alpes, France - Airbnb;45.77918;4.80404;Manon;RGVtYW5kVXNlcjo1Mjc2NDYwOQ==
https://www.airbnb.fr/rooms/53000856;Jungle -Calme - Confortable & Tout 茅quip茅 - Appartements  louer  Saint-Martin-la-Plaine, Auvergne-Rh么ne-Alpes, France - Airbnb;45.53907;4.61317;Audrey;RGVtYW5kVXNlcjo0Mjg0ODgzNTg=
https://www.airbnb.fr/rooms/1115201359413539009;Le M茅tropolitain - Grand studio cur Tassin - Appartements  louer  Tassin-la-Demi-Lune, Auvergne-Rh么ne-Alpes, France - Airbnb;45.76286;4.77929;Annabelle Bnb Agency;RGVtYW5kVXNlcjo1MzU1ODY4MzQ=
https://www.airbnb.fr/rooms/877962561019947344;Dify Magique - Part Dieu - Appartements  louer  Villeurbanne, Auvergne-Rh么ne-Alpes, France - Airbnb;45.7648003409275;4.870544947629327;Tiphaine & Anne;RGVtYW5kVXNlcjo1MDc0NzIzMzk=
https://www.airbnb.fr/rooms/1094760882100354461;Dify Ethnic Chic - Parilly - Appartements  louer  V茅nissieux, Auvergne-Rh么ne-Alpes, France - Airbnb;45.72102;4.89424;Nicolas Et Anne;RGVtYW5kVXNlcjo4MDY3NTM2
https://www.airbnb.fr/rooms/806253891278899615;Dify Chalet  la ville - Parilly - Appartements  louer  V茅nissieux, Auvergne-Rh么ne-Alpes, France - Airbnb;45.719460269016494;4.893880843748773;Clothilde & Laurine;RGVtYW5kVXNlcjo1MDc2MTA1NTc=
https://www.airbnb.fr/rooms/803587886711808953;Dify Industrialel - Parilly - Appartements  louer  V茅nissieux, Auvergne-Rh么ne-Alpes, France - Airbnb;45.71969223410582;4.893817646865672;Clothilde & Laurine;RGVtYW5kVXNlcjo1MDc2MTA1NTc=
https://www.airbnb.fr/rooms/989535677301013567;Dify Jungle - Villeurbanne - Appartements  louer  Villeurbanne, Auvergne-Rh么ne-Alpes, France - Airbnb;45.75293;4.90636;Tiphaine & Anne;RGVtYW5kVXNlcjo1MDc0NzIzMzk=
https://www.airbnb.fr/rooms/1091048780950469957;Magnifique T2 - Ste Foy les Lyon - Balcon -Parking - Appartements  louer  Sainte-Foy-l猫s-Lyon, Auvergne-Rh么ne-Alpes, France - Airbnb;45.75;4.8016;Axel;RGVtYW5kVXNlcjoyMTkzOTM3NjE=
https://www.airbnb.fr/rooms/858553242350937538;Hamac Suites - Suite du Parc 3 - Appartements  louer  Villeurbanne, Auvergne-Rh么ne-Alpes, France - Airbnb;45.77582892369492;4.860741677843168;S茅bastien;RGVtYW5kVXNlcjozMTk1MTI3MDI=
https://www.airbnb.fr/rooms/918296074269605422;Studio Balzac, 300 m du tramway T3 - Appartements  louer  Villeurbanne, Auvergne-Rh么ne-Alpes, France - Airbnb;45.7546;4.8874;Houleye;RGVtYW5kVXNlcjo0MTkwMTQ4MjM=
https://www.airbnb.fr/rooms/761443780841197150;La Maison Charpennes-appartement Monstera 2 pers - Appartements  louer  Villeurbanne, Auvergne-Rh么ne-Alpes, France - Airbnb;45.76908;4.86341;David;RGVtYW5kVXNlcjoyMjYyMTY5MjI=
https://www.airbnb.fr/rooms/847807431134585912;Hamac Suites - Le Valdo - 2 pers - Appartements  louer  Lyon, Auvergne-Rh么ne-Alpes, France - Airbnb;45.75097;4.78461;S茅bastien;RGVtYW5kVXNlcjozMTk1MTI3MDI=
https://www.airbnb.fr/rooms/52239139;Beau studio proximit茅 Croix Rousse 2 personnes - Appartements  louer  Lyon, Auvergne-Rh么ne-Alpes, France - Airbnb;45.7753;4.8386;WeHost;RGVtYW5kVXNlcjozNjk4MjY0OTE=
https://www.airbnb.fr/rooms/930128181908038149;Le petit Duguesclin charmant 2 pers Place Guichard - Appartements  louer  Lyon, Auvergne-Rh么ne-Alpes, France - Airbnb;45.75644;4.84988;David;RGVtYW5kVXNlcjoyMjYyMTY5MjI=
https://www.airbnb.fr/rooms/49554862;MEMORABLEPLACE-Studio Gabs- D茅co ethnique+terrasse - Appartements  louer  Caluire-et-Cuire, Auvergne-Rh么ne-Alpes, France - Airbnb;45.78538;4.84534;Memorable;RGVtYW5kVXNlcjo0MTQ0NzYwMDI=
https://www.airbnb.fr/rooms/40526524;Chevreul Gryphe - Studio Cosy - 2 pers Lyon 7 - Appartements  louer  Lyon, Auvergne-Rh么ne-Alpes, France - Airbnb;45.74989;4.84077;Axel;RGVtYW5kVXNlcjoyMjQxMjY1MA==
https://www.airbnb.fr/rooms/48279558;Universit茅  Gryphe - Studio refait  neuf Lyon 7 - Appartements  louer  Lyon, Auvergne-Rh么ne-Alpes, France - Airbnb;45.74769;4.83965;Axel;RGVtYW5kVXNlcjoyMjQxMjY1MA==
https://www.airbnb.fr/rooms/925908609614804916;Lumignons Lyonnais - Doua - Appartements  louer  Villeurbanne, Auvergne-Rh么ne-Alpes, France - Airbnb;45.779951114351505;4.888934514531709;Hicham;RGVtYW5kVXNlcjo2MTUzMzUy
https://www.airbnb.fr/rooms/682254150345252104;Studio cosy - Villeurbanne Vaulx en Velin - Appartements  louer  Villeurbanne, Auvergne-Rh么ne-Alpes, France - Airbnb;45.75155;4.92019;David;RGVtYW5kVXNlcjoyMjYyMTY5MjI=
https://www.airbnb.fr/rooms/933075749444893737;Le Buisset cosy 4 pers La Mulati猫re - Appartements  louer  La Mulati猫re, Auvergne-Rh么ne-Alpes, France - Airbnb;45.7221;4.8117;David;RGVtYW5kVXNlcjoyMjYyMTY5MjI=
https://www.airbnb.fr/rooms/47768869;Joli appartement + parking priv茅 devant la porte - Appartements  louer  Irigny, Auvergne-Rh么ne-Alpes, France - Airbnb;45.67232;4.81471;Maryline;RGVtYW5kVXNlcjo3Mjc0NDk0MQ==
https://www.airbnb.fr/rooms/824041090225032389;MemorablePlace - Vertige - Appartements  louer  Villeurbanne, Auvergne-Rh么ne-Alpes, France - Airbnb;45.769659756555264;4.867269002274802;Romain;RGVtYW5kVXNlcjoxNzY5MDQwMjk=
https://www.airbnb.fr/rooms/943141859771412241;GuestReady - Charmant studio pour 2 personnes proc - Appartements  louer  Lyon, Auvergne-Rh么ne-Alpes, France - Airbnb;45.75051038328205;4.8460602462669975;Steila;RGVtYW5kVXNlcjozMjc1NTEyMDM=
https://www.airbnb.fr/rooms/50316325;"""L'industriel"" , spacieux T2 refait  neuf - Appartements  louer  Dardilly, Auvergne-Rh么ne-Alpes, France - Airbnb";45.81576;4.76877;Baptiste;RGVtYW5kVXNlcjoyNjM0MjU0ODk=
https://www.airbnb.fr/rooms/1043935674492383103;O Bon Temps Lyon 8 - Suite 1 - Appartements  louer  Lyon, Auvergne-Rh么ne-Alpes, France - Airbnb;45.7248;4.8724;Fabien;RGVtYW5kVXNlcjo1MjA3NzAwMjE=
https://www.airbnb.fr/rooms/1094769077250483711;Dify Le Perrache - Presqu'卯le - Appartements  louer  Lyon, Auvergne-Rh么ne-Alpes, France - Airbnb;45.74730838510488;4.829281170457966;Nicolas Et Anne;RGVtYW5kVXNlcjo4MDY3NTM2
https://www.airbnb.fr/rooms/864175105702383053;bnbg么nes - Le Lombardi - MTRO - Appartements  louer  Lyon, Auvergne-Rh么ne-Alpes, France - Airbnb;45.7508;4.8555;Bnbg么nes;RGVtYW5kVXNlcjo0MTIwNDkzMTA=
https://www.airbnb.fr/rooms/1088379121336811436;Bienvenue  Guilloti猫re - Appartements  louer  Lyon, Auvergne-Rh么ne-Alpes, France - Airbnb;45.7553;4.8413;Lina;RGVtYW5kVXNlcjo1MzIxNzY0MjY=
https://www.airbnb.fr/rooms/1096877617288310808;Vieux Lyon Cour Renaissance - Appartements  louer  Lyon, Auvergne-Rh么ne-Alpes, France - Airbnb;45.76544;4.82879;David;RGVtYW5kVXNlcjoyMjYyMTY5MjI=
https://www.airbnb.fr/rooms/49871366;Les Jardins de Louise-2 pers avec parking-terrasse - Appartements  louer  V茅nissieux, Auvergne-Rh么ne-Alpes, France - Airbnb;45.72624;4.85993;David;RGVtYW5kVXNlcjoyMjYyMTY5MjI=
https://www.airbnb.fr/rooms/53100980;L茅l茅gant Caladois - Hyper-Centre - Appartements  louer  Villefranche-sur-Sa么ne, Auvergne-Rh么ne-Alpes, France - Airbnb;45.98447;4.71668;Lopez;RGVtYW5kVXNlcjoxOTcyODc2Nw==
https://www.airbnb.fr/rooms/44102559;La porte de la Dombes - T2 de charme plein centre - Appartements  louer  Montluel, France - Airbnb;45.8514;5.0561;Pascal;RGVtYW5kVXNlcjozMjg4OTQ1Nw==
https://www.airbnb.fr/rooms/44389453;G卯te Le Miroir dans le parc du ch芒teau de Joyeux - Appartements  louer  Joyeux, Ain, France - Airbnb;45.96522;5.09799;Roland;RGVtYW5kVXNlcjozNTgxNDY4NDA=
https://www.airbnb.fr/rooms/44389457;G卯te Le Margouillis dans le parc du ch芒teau - Appartements  louer  Joyeux, Ain, France - Airbnb;45.96561;5.09985;Roland;RGVtYW5kVXNlcjozNTgxNDY4NDA=
https://www.airbnb.fr/rooms/917250161022750721;Memorableplace - Moanda - 15 mn du centre de Lyon - Appartements  louer  Villeurbanne, Auvergne-Rh么ne-Alpes, France - Airbnb;45.76652908686211;4.867706255252993;Romain;RGVtYW5kVXNlcjoxNzY5MDQwMjk=
https://www.airbnb.fr/rooms/873968032693070552;Spacieux & lumineux : AC/balcon/parking - Appartements  louer  Villeurbanne, Auvergne-Rh么ne-Alpes, France - Airbnb;45.7645;4.89115;Claude;RGVtYW5kVXNlcjo1MTA5ODU5MzY=
https://www.airbnb.fr/rooms/1107227250865610124;Dify Suchet climatis茅 - Perrache/Confluence - Appartements  louer  Lyon, Auvergne-Rh么ne-Alpes, France - Airbnb;45.74512;4.8253;Nicolas Et Anne;RGVtYW5kVXNlcjo4MDY3NTM2
https://www.airbnb.fr/rooms/620104725681659040;Dify Eug猫ne - Part Dieu - Appartements  louer  Lyon, Auvergne-Rh么ne-Alpes, France - Airbnb;45.76219;4.85387;Tiphaine & Anne;RGVtYW5kVXNlcjo1MDc0NzIzMzk=
https://www.airbnb.fr/rooms/1021181940415181043;T2- Lit XL (Part-Dieu, Groupama Stadium, M茅dip么le) - Appartements  louer  Villeurbanne, Auvergne-Rh么ne-Alpes, France - Airbnb;45.76042;4.8902;Florence;RGVtYW5kVXNlcjo1NDQ3MDgxOTA=
https://www.airbnb.fr/rooms/1060840993520439901;Grand appartement atypique et id茅alement situ茅 - Appartements  louer  Lyon, Auvergne-Rh么ne-Alpes, France - Airbnb;45.77239;4.83313;Guillaume;RGVtYW5kVXNlcjo1MTQ5NzczODY=
https://www.airbnb.fr/rooms/711391220664306347;Charmant studio Lyon Terreaux - hyper centre - Appartements  louer  Lyon, Auvergne-Rh么ne-Alpes, France - Airbnb;45.7663;4.8324;Aline;RGVtYW5kVXNlcjo0NTEwNDc2NzY=
https://www.airbnb.fr/rooms/1032599381632957328;Bienvenue  Croix Rousse - Appartements  louer  Lyon, Auvergne-Rh么ne-Alpes, France - Airbnb;45.7743;4.8252;Lina;RGVtYW5kVXNlcjo1MzIxNzY0MjY=
https://www.airbnb.fr/rooms/1075294630484564592;Studio type chalet au calme - Appartements  louer  Lacenas, Auvergne-Rh么ne-Alpes, France - Airbnb;45.982064293001166;4.644769781805997;S茅bastien;RGVtYW5kVXNlcjoyOTEyNDUzMjY=
https://www.airbnb.fr/rooms/1051327384652824424;Dify Sunny - 10 min centre ville de Lyon - Appartements  louer  Villeurbanne, Auvergne-Rh么ne-Alpes, France - Airbnb;45.77172352727125;4.868915673911467;Tiphaine & Anne;RGVtYW5kVXNlcjo1MDc0NzIzMzk=
https://www.airbnb.fr/rooms/38447923;Studio calme, confort et lumi猫re  Garibaldi - Appartements  louer  Lyon, Auvergne-Rh么ne-Alpes, France - Airbnb;45.75284;4.85551;WeHost;RGVtYW5kVXNlcjozNjk4MjY0OTE=
https://www.airbnb.fr/rooms/986028392046244052;GuestReady - S茅jour Confortable  Villeurbanne - Appartements  louer  Villeurbanne, Auvergne-Rh么ne-Alpes, France - Airbnb;45.76969847497601;4.887038338300698;GuestReady;RGVtYW5kVXNlcjo1MzgwMzUxODg=
https://www.airbnb.fr/rooms/976522144658342064;L'annexe - Caluire - Appartements  louer  Caluire-et-Cuire, Auvergne-Rh么ne-Alpes, France - Airbnb;45.8013;4.8493;Claire Marie;RGVtYW5kVXNlcjoyMzY1OTc0NDM=
https://www.airbnb.fr/rooms/630948613896994161;Le Sainte Catherine - Joli studio refait  neuf H么tel de Ville - Appartements  louer  Lyon, Auvergne-Rh么ne-Alpes, France - Airbnb;45.76693;4.83321;Romain;RGVtYW5kVXNlcjoxNzY5MDQwMjk=
